Scheme,DXCC,Reference,Name,Type,Lat,Long,Locator
9ABOTA,497,B/9A-0001,Krči,Kingdom of Yugoslavia,45.448409,16.318265,JN85DK
9ABOTA,497,B/9A-0002,Kupalište,Kingdom of Yugoslavia,45.444604,16.269341,JN85DK
9ABOTA,497,B/9A-0003,Vila Rebar,WW2,45.863344,15.97925,JN75XU
9ABOTA,497,B/9A-0004,Bringln,Kingdom of Yugoslavia,45.449467,16.310678,JN85DK
9ABOTA,497,B/9A-0005,Zadar,Italian WW2,44.105102,15.28501,JN74PC
9ABOTA,497,B/9A-0006,Zadar,Italian WW2,44.093014,15.293451,JN74PC
9ABOTA,497,B/9A-0007,Zadar,Italian WW2,44.096025,15.278558,JN74PC
9ABOTA,497,B/9A-0008,Zadar,Italian WW2,44.093235,15.2782,JN74PC
9ABOTA,497,B/9A-0009,Zadar,Italian WW2,44.094175,15.279069,JN74PC
9ABOTA,497,B/9A-0010,Zadar,Italian WW2,44.093371,15.26932,JN74PC
9ABOTA,497,B/9A-0011,Puntamika,Italian WW2,44.1311655,15.2046055,JN74OD
9ABOTA,497,B/9A-0012,Vis,Yugoslav People Army,43.0565577,16.0525596,JN83AB
9ABOTA,497,B/9A-0013,Šibenik,WW2,43.74216061,15.90979505,JN73WR
9ABOTA,497,B/9A-0014,Šibenik,WW2,43.74422534,15.90785571,JN73WR
9ABOTA,497,B/9A-0015,Split,WW2,43.50980672,16.41197223,JN83EM
9ABOTA,497,B/9A-0016,Split,WW2,43.50980672,16.41531962,JN83EM
9ABOTA,497,B/9A-0017,Split,Yugoslav People Army,43.5052001,16.40845317,JN83EM
9ABOTA,497,B/9A-0018,Split,WW2,43.55957308,16.51158318,JN83GN
9ABOTA,497,B/9A-0019,Žaborić,Yugoslav People Army,43.670905,15.9334907,JN73XQ
9ABOTA,497,B/9A-0020,Školjić,WW2,43.7197751,15.856764,JN73WR
9ABOTA,497,B/9A-0021,Lozica,WW2,42.67829676,18.0761913,JN92AQ
9ABOTA,497,B/9A-0022,Zaton,WW2,42.68635605,18.04515731,JN92AQ
9ABOTA,497,B/9A-0023,Školjić,WW2,44.89758556,14.01523668,JN74AV
9ABOTA,497,B/9A-0024,Figo Uvala,WW2,44.87002089,13.79697494,JN64VU
9ABOTA,497,B/9A-0025,Muzil,Yugoslav People Army,44.86299737,13.80173611,JN64VU
9ABOTA,497,B/9A-0026,Pula,WW2,44.83335177,13.85062413,JN64WU
9ABOTA,497,B/9A-0027,Zaprešić,WW2,45.83477017,15.82237501,JN75VU
9ABOTA,497,B/9A-0028,Bukovac,WW2,45.34952976,14.76387458,JN75JI
9ABOTA,497,B/9A-0029,Mali Dol,WW2,45.26417726,14.61623719,JN75HG
9ABOTA,497,B/9A-0030,Veli Dol,WW2,45.25792438,14.62215951,JN75HG
9ABOTA,497,B/9A-0031,Kovačica,WW2,45.74284566,16.99519043,JN85LR
9ABOTA,497,B/9A-0032,Vrijeska,Yugoslav People Army,45.64441648,17.29319908,JN85PP
9ABOTA,497,B/9A-0033,Vrijeska,WW2,45.64338651,17.29052538,JN85PP
9ABOTA,497,B/9A-0034,Zvonimirovac,WW2,45.6995745,17.87958438,JN85WQ
9ABOTA,497,B/9A-0035,Dobrović,WW2,45.6561243,17.8573245,JN85WP
9ABOTA,497,B/9A-0036,Gajić,WW2,45.4883681,18.0797257,JN95AL
9ABOTA,497,B/9A-0037,Sokolana,WW2,45.4958448,18.0956428,JN95BL
9ABOTA,497,B/9A-0038,Urbari ja,WW2,45.4957797,18.1041129,JN95BL
9ABOTA,497,B/9A-0039,Jelisavac,WW2,45.5199595,18.1277623,JN95BM
9ABOTA,497,B/9A-0040,Velike Sredice,,45.8786858,16.8149373,JN85JV
9ABOTA,497,B/9A-0041,Plavšinac,Yugoslav People Army,46.11007,16.9288839,JN86LC
9ABOTA,497,B/9A-0042,Babulj,Homeland War,44.5292115,15.442269,JN74RM
9ABOTA,497,B/9A-0043,Paklenica,Yugoslav People Army,44.306206,15.473006,JN74RH
9ABOTA,497,B/9A-0044,Lastovo,Yugoslav People Army,42.7657298,16.813607,JN82JS
9ABOTA,497,B/9A-0045,Lastovo,Yugoslav People Army,42.7690295,16.8026554,JN82JS
9ABOTA,497,B/9A-0046,Lastovo,Yugoslav People Army,42.7407206,16.8442672,JN82KR
9ABOTA,497,B/9A-0047,Lastovo,Yugoslav People Army,42.7568717,16.8101978,JN82JS
9ABOTA,497,B/9A-0048,Lastovo,Yugoslav People Army,42.7244915,16.8418692,JN82KR
9ABOTA,497,B/9A-0049,Lastovo,Yugoslav People Army,42.7250265,16.8436293,JN82KR
9ABOTA,497,B/9A-0050,Soboli,WW2,45.3759823,14.5421792,JN75GJ
9ABOTA,497,B/9A-0051,Česko Selo,Kingdom of Yugoslavia,45.4405689,16.3239502,JN85DK
9ABOTA,497,B/9A-0052,Silos,Kingdom of Yugoslavia,45.445397,16.302163,JN85DK
9ABOTA,497,B/9A-0053,Silos,Kingdom of Yugoslavia,45.445438,16.301954,JN85DK
9ABOTA,497,B/9A-0054,Regelbau,WW2 German,45.817403,15.931406,JN75XT
9ABOTA,497,B/9A-0055,Radar Complex,Yugoslav People Army,45.70327,16.086023,JN85BQ
9ABOTA,497,B/9A-0056,Vrsar,WW2,45.132662,13.616365,JN65TD
9ABOTA,497,B/9A-0057,Lesso,WW2,45.100294,13.622708,JN65TC
9ABOTA,497,B/9A-0058,Rovinj,WW2,45.084149,13.629325,JN65TC
9ABOTA,497,B/9A-0059,Rovinj,WW2,45.070223,13.628106,JN65TB
9ABOTA,497,B/9A-0060,Fort Forno,WW1,44.999476,13.726074,JN64UX
9ABOTA,497,B/9A-0061,Fort Forno,WW1,44.998586,13.725608,JN64UX
9ABOTA,497,B/9A-0062,Fort Caluzzi,WW1,44.998705,13.73142,JN64UX
9ABOTA,497,B/9A-0063,Fort Caluzzi,WW1,44.998129,13.732461,JN64UX
9ABOTA,497,B/9A-0064,Bus,WW1,45.00262,13.729839,JN65UA
9ABOTA,497,B/9A-0065,Fort Paravia,WW1,45.003553,13.736223,JN65UA
9ABOTA,497,B/9A-0066,Fort Paravia,WW1,45.003674,13.736652,JN65UA
9ABOTA,497,B/9A-0067,Fort Giacomo,WW1,45.006178,13.732382,JN65UA
9ABOTA,497,B/9A-0068,Fort Spinida,WW1,45.005951,13.738709,JN65UA
9ABOTA,497,B/9A-0069,Fort Barbariga,WW1,45.004301,13.742141,JN65UA
9ABOTA,497,B/9A-0070,Fort Giacomo,WW1,45.007163,13.734785,JN65UA
9ABOTA,497,B/9A-0071,Fort Benedetto,WW1,44.994064,13.734342,JN64UX
9ABOTA,497,B/9A-0072,Coast Beach,WW2,44.966328,13.771061,JN64VX
9ABOTA,497,B/9A-0073,Barbariga,WW1,44.986668,13.737527,JN64UX
9ABOTA,497,B/9A-0074,Peroj,WW2,44.951709,13.782371,JN64VW
9ABOTA,497,B/9A-0075,Monte Salvie,WW2,44.931701,13.731601,JN64UW
9ABOTA,497,B/9A-0076,Brijun,WW2,44.923066,13.736386,JN64UW
9ABOTA,497,B/9A-0077,Fisella,WW1,44.872215,13.807199,JN64VU
9ABOTA,497,B/9A-0078,Muzil,WW1,44.864138,13.800478,JN64VU
9ABOTA,497,B/9A-0079,Muzil,WW1,44.862089,13.798225,JN64VU
9ABOTA,497,B/9A-0080,Ovine,WW1,44.860694,13.808051,JN64VU
9ABOTA,497,B/9A-0081,Kolucinka,WW2,44.817923,13.853595,JN64WT
9ABOTA,497,B/9A-0082,Volam,WW2,44.805451,13.873727,JN64WT
9ABOTA,497,B/9A-0083,Premantura,WW2,44.812672,13.908959,JN64WT
9ABOTA,497,B/9A-0084,Premantura,WW2,44.795499,13.906845,JN64WT
9ABOTA,497,B/9A-0085,Kamenjak,WW2,44.771274,13.911081,JN64WS
9ABOTA,497,B/9A-0086,Medulin,WW2,44.803294,13.929502,JN64XT
9ABOTA,497,B/9A-0087,Medulin,WW2,44.804,13.93155,JN64XT
9ABOTA,497,B/9A-0088,Monte Madonna,WW1,44.846977,13.974718,JN64XU
9ABOTA,497,B/9A-0089,Monte Madonna,WW1,44.847225,13.974866,JN64XU
9ABOTA,497,B/9A-0090,Monte Madonna,WW1,44.84743,13.975064,JN64XU
9ABOTA,497,B/9A-0091,Grmov,WW2,44.825328,14.370644,JN74ET
9ABOTA,497,B/9A-0092,Studena,Kingdom of Yugoslavia,45.430061,14.378013,JN75EK
9ABOTA,497,B/9A-0093,Drenova,WW2,45.35029,14.445927,JN75FI
9ABOTA,497,B/9A-0094,Drenova,WW2,45.349323,14.445777,JN75FI
9ABOTA,497,B/9A-0095,Monte Lesco,WW2,45.353947,14.442649,JN75FI
9ABOTA,497,B/9A-0096,Pulac,WW2,45.354698,14.441395,JN75FI
9ABOTA,497,B/9A-0097,Pulac,WW2,45.354652,14.435284,JN75FI
9ABOTA,497,B/9A-0098,Drenova,WW2,45.358983,14.428734,JN75FI
9ABOTA,497,B/9A-0099,Srdoči,WW2,45.351425,14.364152,JN75EI
9ABOTA,497,B/9A-0100,Veli Vrh,WW2,45.362276,14.439031,JN75FI
9ABOTA,497,B/9A-0101,Krči,Kingdom of Yugoslavia,45.447952,16.319048,JN85DK
9ABOTA,497,B/9A-0102,Krči,Kingdom of Yugoslavia,45.447086,16.321948,JN85DK
9ABOTA,497,B/9A-0103,Krči,Kingdom of Yugoslavia,45.447209,16.322734,JN85DK
9ABOTA,497,B/9A-0104,Krči,Kingdom of Yugoslavia,45.447492,16.325792,JN85DK
9ABOTA,497,B/9A-0105,Kupa,Kingdom of Yugoslavia,45.457181,16.335539,JN85EK
9ABOTA,497,B/9A-0106,Kupa,Kingdom of Yugoslavia,45.465942,16.331927,JN85DL
9ABOTA,497,B/9A-0107,Kupa,Kingdom of Yugoslavia,45.463181,16.312802,JN85DL
9ABOTA,497,B/9A-0108,Nova Drenčina,Kingdom Of Yugoslavia,45.456893,16.319906,JN85DK
9ABOTA,497,B/9A-0109,Radio Reley Magarčevac,Yugoslav People Army,45.290398,15.784334,JN75VG
9ABOTA,497,B/9A-0110,Sesvete,WW2,45.824251,16.106742,JN85BT
9ABOTA,497,B/9A-0111,Sesvete,WW2,45.823926,16.115495,JN85BT
9ABOTA,497,B/9A-0112,Sudovec,Yugoslav People Army,46.106688,16.354349,JN86EC
9ABOTA,497,B/9A-0113,Možđenec,Yugoslav People Army,46.131901,16.357537,JN86ED
9ABOTA,497,B/9A-0114,Možđenec,Yugoslav People Army,46.146529,16.361159,JN86ED
9ABOTA,497,B/9A-0115,Radio Reley Molvice,Yugoslav People Army,45.773221,15.760989,JN75VS
9ABOTA,497,B/9A-0116,Radio Reley Panos,Yugoslav People Army,44.42627,15.281792,JN74PK
9ABOTA,497,B/9A-0117,Radio Reley Ćelavac,Yugoslav People Army,44.259745,15.78524,JN74VG
9ABOTA,497,B/9A-0118,Radio Reley Kuk 1,Yugoslav People Army,43.410626,16.87397,JN83KJ
9ABOTA,497,B/9A-0119,Radio Reley Kuk 0,Yugoslav People Army,43.385586,16.935815,JN83LJ
9ABOTA,497,B/9A-0120,Fort San Daniele,WW1,44.883648,13.890786,JN64WV
9ABOTA,497,B/9A-0121,Prvić,WW2,43.724726,15.803878,JN73VR
9MBOTA,299,B/9M-0001,Penang War Museum (bunker),Unknown,5.28159,100.28883,OJ05DG
9MBOTA,299,B/9M-0002,Ipoh Airport (bunker),Unknown,4.57016,101.10203,OJ04NN
9MBOTA,299,B/9M-0003,Kota Kuala Muda Pillbox (bunker),Unknown,5.67291,100.37066,OJ05EQ
9MBOTA,299,B/9M-0004,Mount Erskine (bunker),Unknown,5.44229,100.30314,OJ05DK
9MBOTA,299,B/9M-0005,Teluk Kumbar Pillbox (bunker),Unknown,5.29116,100.23274,OJ05CG
9MBOTA,299,B/9M-0006,Banding Memorial Gallery (bunker),Unknown,5.54338,101.34091,OJ05QN
9MBOTA,299,B/9M-0007,Kelantan Riverbank (bunker),Unknown,6.13096,102.234,OJ16CD
9MBOTA,46,B/9M-0008,Kudat Pinangsoo Cave (bunker),Unknown,6.93147,116.80794,OJ86JW
9MBOTA,299,B/9M-0009,Gunung Panti (bunker),Unknown,1.88449,103.9171,OJ11XV
9MBOTA,299,B/9M-0010,Tanjung Pengelih (bunker),Unknown,1.36863,104.08963,OJ21BI
9MBOTA,299,B/9M-0011,Pantai Pelindung  (bunker),Unknown,3.828,103.37516,OJ13QT
9MBOTA,299,B/9M-0012,Pantai Beserah (bunker),Unknown,3.89689,103.36615,OJ13QV
9MBOTA,299,B/9M-0013,Pantai Teluk Cempedak (bunker),Unknown,3.81406,103.37213,OJ13QT
9MBOTA,299,B/9M-0014,Pantai Merdeka (bunker),Unknown,5.67178,100.37035,OJ05EQ
9MBOTA,299,B/9M-0015,Green Ridge (bunker),Unknown,4.33231,101.15545,OJ04NH
9MBOTA,299,B/9M-0016,Pantai Chap  (bunker),Unknown,6.03718,102.41285,OJ16EA
9MBOTA,299,B/9M-0017,Pantai Kundur (bunker),Unknown,6.20663,102.2535,OJ16DE
9MBOTA,46,B/9M-0018,Reservoir Park (bunker),Unknown,1.55321,110.3461,OJ51EN
9MBOTA,299,B/9M-0019,Pantai Perupok (bunker),Unknown,6.08947,102.39218,OJ16EC
9MBOTA,299,B/9M-0020,Dataran Kubu Pengkalan Attap (bunker),Unknown,5.83607,102.54937,OJ15GU
9MBOTA,299,B/9M-0021,Laman Kubu British 1939 (bunker),Unknown,1.72671,103.89232,OJ11WR
9MBOTA,299,B/9M-0022,Kampung Bohor (bunker),Unknown,6.17115,100.4036,OJ06EE
9MBOTA,299,B/9M-0023,Pillbox Kampung Baung (bunker),Unknown,6.16102,102.27662,OJ16DD
9MBOTA,299,B/9M-0024,Kampung Lalang Luas (bunker),Unknown,5.81774,102.20129,OJ15CT
9MBOTA,299,B/9M-0025,Dataran Kubu Kuala Gel (bunker),Unknown,6.00141,102.42981,OJ16FA
9MBOTA,299,B/9M-0026,Dutch Fort Pulau Pangkor (bunker),Unknown,4.20286,100.5754,OJ04GE
9MBOTA,46,B/9M-0027,Fort Margherita (The Brooke Gallery) (bunker),Unknown,1.56078,110.34943,OJ51EN
9MBOTA,299,B/9M-0028,Matang Museum Kota Ngah Ibrahim (bunker),Unknown,4.81337,100.67623,OJ04IT
9MBOTA,46,B/9M-0029,Fort Emma (bunker),Unknown,2.1018,112.15801,OJ62BC
9MBOTA,46,B/9M-0030,Fort Hose (bunker),Unknown,4.17733,114.32472,OJ74DE
9MBOTA,46,B/9M-0031,Fort Alice (bunker),Unknown,1.24,111.46185,OJ51RF
9MBOTA,46,B/9M-0032,Fort Arundell (bunker),Unknown,1.16372,111.83312,OJ51VD
9MBOTA,46,B/9M-0033,Fort Sylvia (bunker),Unknown,2.10815,112.93175,OJ62LC
9MBOTA,46,B/9M-0034,Kubu Long Akah (bunker),Unknown,3.31874,114.7906,OJ73JH
9MBOTA,46,B/9M-0035,Fort Lily (bunker),Unknown,1.42098,111.52754,OJ51SK
9MBOTA,46,B/9M-0036,Fort Charles (bunker),Unknown,1.7997,111.11999,OJ51NT
9MBOTA,299,B/9M-0037,A Famosa (bunker),Unknown,2.19181,102.25037,OJ12DE
9MBOTA,299,B/9M-0038,Pillbox Jalan Dato Ismail Hashim (bunker),Unknown,5.32965,100.27578,OJ05DH
9MBOTA,299,B/9M-0039,Pillbox Jalan Gertak Sanggul (bunker),Unknown,5.28803,100.22549,OJ05CG
9MBOTA,299,B/9M-0040,Lukut Museum (bunker),Unknown,2.56828,101.82282,OJ02VN
9MBOTA,299,B/9M-0041,Fort Supai (bunker),Unknown,2.38833,101.97175,OJ02XJ
9MBOTA,299,B/9M-0042,Fort Iskandar (bunker),Unknown,2.88812,102.54911,OJ12GV
9MBOTA,299,B/9M-0043,Pulau Bewok Bunker (bunker),Unknown,3.77988,103.30588,OJ13PS
9MBOTA,299,B/9M-0044,Kepala Batas Bunker (bunker),Unknown,6.19962,100.41206,OJ06EE
9MBOTA,299,B/9M-0045,Johor Lama Museum (bunker),Unknown,1.58071,104.01781,OJ21AN
9MBOTA,299,B/9M-0046,Kuala Kedah Museum (bunker),Unknown,6.10892,100.28665,OJ06DC
CABOTA,1,B/CA-0001,Naval Ammunition Depot Bunkers,Historical Ammo Bunker,50.672899,-120.382573,CO90TQ
CABOTA,1,B/CA-0002,Diefenbunker National Historic Site,Historical Cold War Bunker,45.3505,-76.0462,FN15XI
CABOTA,1,B/CA-0003,Debert Diefenbunker,Historical Cold War Bunker,45.421017,-63.450522,FN85GK
CABOTA,1,B/CA-0004,Tracadie Air Force Range Bunker,Former Miltary Training Bunker,47.43532,-65.05165,FN77LK
CABOTA,1,B/CA-0005,CFB Penhold Bunker,Former Cold War Bunker Site,52.172374,-113.860279,DO32BE
CABOTA,1,B/CA-0006,NORAD Complex,Classified Federal Heritage Building,46.356065,-79.416904,FN06GI
CABOTA,1,B/CA-0007,FRP FK2,"Chisholm, AB, Red Deer Filter Centre, Completed by 1 Nov 1962  (jurisdiction NAR)",54.91012103,-114.1703941,DO24VV
CABOTA,1,B/CA-0008,FRP EK1,"Boyle, AB, NAR? building. EKHK 1035,",54.58725993,-112.8037966,DO34OO
CABOTA,1,B/CA-0009,FRP FK4,"Barrhead, AB, NAR building, EKFK3510",54.12307223,-114.4016742,DO24TC
CABOTA,1,B/CA-0010,FRP GJ 22,"RCAF Station Namao, EKGJ 3340",53.67452023,-113.4631747,DO33GQ
CABOTA,1,B/CA-0011,FRP GH33,"RCAF Station Penhold, EKGH0809, linked to REHQ Penhold",52.17700003,-113.89,DO32BE
CABOTA,1,B/CA-0012,FRP EK42,"RCAF Cold Lake, EKEK4325",54.40569173,-110.2819433,DO44UJ
CABOTA,1,B/CA-0013,FRP GJ33,"In Department of Transport building, EKGJ2520",53.33735683,-113.5240025,DO33FI
CABOTA,1,B/CA-0014,FRP JF4,"DRB Suffield, EKJF5113",50.27294053,-111.1730991,DO40JG
CABOTA,1,B/CA-0015,FRP EK2,"Swan Hills RCMP station, EKEK3545",54.71604933,-115.4025896,DO24HR
CABOTA,1,B/CA-0016,FRP GK2,"Athabaska RCMP Station, EKGK4542",54.72140943,-113.2861822,DO34IR
CABOTA,1,B/CA-0017,FRP JK1,"Lac La Biche, AB, RCMP Station, EKJK0146",54.76964153,-111.972514,DO44AS
CABOTA,1,B/CA-0018,FRP GK3,"Westlock, AB, RCMP station, EKGK0910",54.15215653,-113.851419,DO34BD
CABOTA,1,B/CA-0019,FRP EK4,"Smoky Lake, AB RCMP Station",54.11236423,-112.4759069,DO34SC
CABOTA,1,B/CA-0020,FRP KK3,"Bonnyville, AB RCMP Station, EKKK1818",54.26817663,-110.7200371,DO44PG
CABOTA,1,B/CA-0021,FRP EJ2,"Mayerthorpe, AB RCMP Station, EKEJ5557",53.95250133,-115.1397259,DO23KW
CABOTA,1,B/CA-0022,FRP DJ2,"Edson, AB RCMP Station, EKDJ3335",53.58550873,-116.4428615,DO13SO
CABOTA,1,B/CA-0023,FRP HE13,"Picture Butte, AB RCMP Station EKHE1453",49.87301933,-112.7801858,DN39OU
CABOTA,1,B/CA-0024,FRP JE3,"Coutts, AB RCMP Station, EKJE0201",49.00234063,-111.9648003,DN49AA
CABOTA,1,B/CA-0025,FRP GG2,"Three Hills, AB RCMP Station, EKGG4742",51.70712003,-113.2648644,DO31IQ
CABOTA,1,B/CA-0026,FRP JG1,"Hanna AB RCMP Station, EKJG0438",51.64405823,-111.92872,DO41AP
CABOTA,1,B/CA-0027,FRP JG42,"Cochrane, AB RCMP Station, EKFG 3213",51.19098833,-114.4678603,DO21SE
CABOTA,1,B/CA-0028,FRP GG3,"Beiseker AB RCMP Station, EKGG2924",51.38502923,-113.535263,DO31FJ
CABOTA,1,B/CA-0029,FRP FG4,"Oyen, AB RCMP Station EKGG3122",51.35186143,-110.4825214,DO41SI
CABOTA,1,B/CA-0030,FRP FG44,"Calgary, AB RCMP Station (Nov 1961), EKFG5505",51.04861513,-114.0708459,DO21XB
CABOTA,1,B/CA-0031,FRP GZ2,"Gleichen, AB RCMP Station, EKGZ5753",50.86615303,-113.051568,DO30LU
CABOTA,1,B/CA-0032,FRP HF2,"Bassano, AB RCMP Station, EKHF3148",50.78947913,-112.4686447,DO30SS
CABOTA,1,B/CA-0033,FRP GF1,"Okotoks, AB RCMP Station, EKFG0244",50.72549363,-113.9749472,DO30AR
CABOTA,1,B/CA-0034,FRP GP?12,"High River, AB RCMP Station EKGP0835",50.58010213,-113.8707312,DO30BN
CABOTA,1,B/CA-0035,FRP JF1,Brooks AB RCMP Station EKJF0534,50.56597523,-111.8991668,DO40BN
CABOTA,1,B/CA-0036,FRP HJ1,"Lamont, AB RCMP Station HEHJ1446",53.76019793,-112.7795395,DO33OS
CABOTA,1,B/CA-0037,FRP JJ1,"Two Hills, AB RCMP Station, EKJJ1542",53.71164763,-111.7448789,DO43DR
CABOTA,1,B/CA-0038,FRP KJ12,"Derwent, AB, RCMP Station, EKKJ0140",53.65471873,-110.9668813,DO43MP
CABOTA,1,B/CA-0039,FRP CJ3/FRP CJ32,"Hinton, AB RCMP Station EKCJ2724. There was another FRP here, FRP CJ32, located in a prov lands and forests building at EKCJ2525",53.40370883,-117.5718423,DO13FJ
CABOTA,1,B/CA-0040,FRP FJ22,"Stony Plain AB RCMP Station, EKFJ5932",53.52793143,-114.001928,DO23XM
CABOTA,1,B/CA-0041,FRP GJ25,"Edmonton AB RCMP Station, EKGJ3133",53.54438903,-113.4909267,DO33GN
CABOTA,1,B/CA-0042,FRP HJ4,"Vegreville AB RCMP Station, EKHJ5630",53.50517353,-112.0621386,DO33XM
CABOTA,1,B/CA-0043,FRP FJ3,Drayton Valley AB RCMP Station EEFJ0115,53.22140743,-114.9766785,DO23MF
CABOTA,1,B/CA-0044,FRP GJ34,"Leduc, AB RCMP Station EKGJ2717",53.25801263,-113.5502218,DO33FG
CABOTA,1,B/CA-0045,FRP JJ3,Viking AB RCMP Station EKJJ1506,53.09607933,-111.7764533,DO43CC
CABOTA,1,B/CA-0046,FRP BH2,"Jasper AB RCMP Station, EKBH 5752",52.87367863,-118.0813581,DO02XU
CABOTA,1,B/CA-0047,FRP JH1,Killam AB RCMP Station HKJH1250,52.79111883,-111.8606207,DO42BS
CABOTA,1,B/CA-0048,FRP GH3,Red Deer AB RCMP Station EKGH1218,52.26811183,-113.8112386,DO32CG
CABOTA,1,B/CA-0049,FRP HH3,"Stettler AB RCMP Station, EKHH1920",52.32275153,-112.7109042,DO32PH
CABOTA,1,B/CA-0050,FRP HH4,Provost AB RCMP Station EKKH 4821,52.35595333,-110.2607913,DO42UI
CABOTA,1,B/CA-0051,FRP GH34,Innisfail AB RCMP Station EKGH0601,52.02740643,-113.9470957,DO32AA
CABOTA,1,B/CA-0052,FRP JK4,Coronation AB RCMP Station HKJK3306,52.09373823,-111.445833,DO42GC
CABOTA,1,B/CA-0053,FRP KE32,"Magrath AB RCMP Station, EKKE0527",49.42364473,-112.8686066,DN39NK
CABOTA,1,B/CA-0054,FRP KE3,"Manyberries AB RCMP Station, EKKE1925",49.40168803,-110.693238,DN49PJ
CABOTA,1,B/CA-0055,FRP GE32,"Waterton AB, RCMP Station, FKGE0503",49.05096003,-113.908563,DN39BB
CABOTA,1,B/CA-0056,FRP GE4,Cardston AB RCMP Station EKGE4212,49.19506633,-113.301798,DN39IE
CABOTA,1,B/CA-0057,FRP GF3,"Nanton, AB RCMP Station EKGF1522",50.34633553,-113.7746723,DO30CI
CABOTA,1,B/CA-0058,FRP GF43,Barons AB RCMP Station EKGF5300,49.99754743,-113.0816765,DN39LX
CABOTA,1,B/CA-0059,FRP HF4,Vauxhall AB RCMP Station EKHF5405,50.06918643,-112.1077749,DO30WB
CABOTA,1,B/CA-0060,FRP GE2,Fort Macleod AB  RCMP Station EKGE3642,49.72167923,-113.4000408,DN39HR
CABOTA,1,B/CA-0061,FRP HE12,Lethbridge AB RCMP Station EKHE1142,49.69349003,-112.84184,DN39NQ
CABOTA,1,B/CA-0062,FRP HE12,"Taber AB RCMP Station, EKHE5148",49.78596063,-112.1496533,DN39WS
CABOTA,1,B/CA-0063,FRP JE2,"Bow Island, AB RCMP Station EKJE4052",49.86962103,-111.3770987,DN49HU
CABOTA,1,B/CA-0064,FRP FE2,"Blairmore AB, RCMP Station HEFE3336",49.63399903,-114.5183052,DN29RP
CABOTA,1,B/CA-0065,FRP GE1,Pincher Creek AB RCMP Station EKGE0130,49.48634583,-113.9502549,DN39AL
CABOTA,1,B/CA-0066,FRP JE4,"Foremost AB RCMP Station, EKJE3229",49.47903313,-111.4407787,DN49GL
CABOTA,1,B/CA-0067,FRP GJ1,Medicine Lodge AB Provincial Lands and Forests building (somewhere) EKGJ5932,53.56666703,-117.0166671,DO13LN
CABOTA,1,B/CA-0068,FRP EJ3,"Lovett, AB Provincial Lands and Forest building EKEJ0125",53.033333,-116.68333,DO13PA
CABOTA,1,B/CA-0069,FRP EJ1,"Cold Creek, AB, Prov Lands and Forests EKEJ3039",53.34985893,-117.6381441,DO13EI
CABOTA,1,B/CA-0070,FRP EJ4,"Lodgepole AB Prov Lands and Forests, EKEJ3515",53.09990203,-115.316841,DO23IC
CABOTA,1,B/CA-0071,FRP CH2,Cadomin AB Prov Lands and Forests EJCH3559,53.03247203,-117.326529,DO13IA
CABOTA,1,B/CA-0072,FRP DH2,Nordegg AB Prov Lands and Forests EKDH5830,52.46798603,-116.081488,DO12XL
CABOTA,1,B/CA-0073,FRP FE32,"Rocky Mountain House AB Prov Lands and Forests, EKFH1525",52.37934323,-114.9182883,DO22MJ
CABOTA,1,B/CA-0074,FRP EH4,"Clearwater, AB (near here?) Prov Lands and Forests EKEH4510",52.11916483,-115.6605259,DO22EC
CABOTA,1,B/CA-0075,FRP EG3,"Ghost AB? Prov Lands and Forests building, EKEG1518",51.39413873,-115.0130188,DO21LJ
CABOTA,1,B/CA-0076,FRP EF2,"Kananaskis, AB Prov Lands and Forests EKEF5658",51.07633553,-115.1288004,DO21KB
CABOTA,1,B/CA-0077,FRP EG44,Canmore AB Prov Lands and Forests EKEG4005,51.08924283,-115.3597129,DO21HC
CABOTA,1,B/CA-0078,FRP FF1,Elbow AB Prov Lands and Forests EKFF 2055 (not in this location),50.79680103,-114.8516964,DO20NT
CABOTA,1,B/CA-0079,FRP FF12,Sheep AB Prov Lands and Forests EKFF2638,50.63015533,-114.6837741,DO20PP
CABOTA,1,B/CA-0080,FRP FF3,Highwood AB Prov Lands and Forests Building EKFF2725,50.59944403,-114.987778,DO20MO
CABOTA,1,B/CA-0081,FRP FF4,Willow Creek AB Prov Lands and Forests EKFF3520,49.96565083,-113.7775555,DN39CX
CABOTA,1,B/CA-0082,FRP FE1,Livingstone AB Prov Lands and Forests EKFE2850,50.10009543,-114.439245,DO20SC
CABOTA,1,B/CA-0083,FRP FE22,"Coleman, AB Prov Lands and Forests EKFE3135 (probably not here?)",49.63505843,-114.5025925,DN29RP
CABOTA,1,B/CA-0084,FRP AK2*,"South Wapiti AB, Prov Lands and Forests (probably ranger station) EKAK5058",54.51103433,-119.4066675,DO04HM
CABOTA,1,B/CA-0085,FRP BJ1,Muskeg AB Prov Lands and Forests EKBJ2055,53.91666703,-118.65,DO03QW
CABOTA,1,B/CA-0086,FRP DK1,Pine AB Prov Lands and Forests EKDK0938,52.10971303,-113.4806889,DO32GC
CABOTA,1,B/CA-0087,FRP DK12,"Sunset AB Prov Land and Forests, EKDK1059 (not here obviously)",53.67228993,-111.0949482,DO43KQ
CABOTA,1,B/CA-0088,FRP DJ32,Robb AB Prov Lands and Forests EKDJ0515,53.23357803,-116.9744825,DO13MF
CABOTA,1,B/CA-0089,FRP FK3,Fort Assiniboine AB Prov Lands and Forests EKFK2121,54.33399803,-114.769976,DO24OI
CABOTA,1,B/CA-0090,FRP BJ4,Rock Lake AB Prov Lands and Forests EKBJ3525,53.46437443,-118.2415031,DO03VL
CABOTA,1,B/CA-0091,FRP JK4,Glendon AB CNR Station EKJK5415,54.24990803,-111.1540688,DO44KF
CABOTA,1,B/CA-0092,FRP GJ1,Morinville CNR Station EKCJ2245,53.79250653,-113.6463436,DO33ET
CABOTA,1,B/CA-0093,FRP EJ1,Elk Point AB CNR Station EKEJ0555,53.89480643,-110.9001945,DO43NV
CABOTA,1,B/CA-0094,FRP EJ1,"Peers AB CNR Station, EKEJ0139",53.66248413,-115.9980916,DO23AP
CABOTA,1,B/CA-0095,FRP FJ2,Onaway AB CNR Station EKFJ5142,53.70393993,-114.1924746,DO23VQ
CABOTA,1,B/CA-0096,FRP CJ2,Obed AB CNR Station EKCJ4632,53.55489403,-117.2119075,DO13JN
CABOTA,1,B/CA-0097,FRP HJ22,Mundare AB CNR Station EKHJ4036,53.59330433,-112.3444102,DO33TO
CABOTA,1,B/CA-0098,FRP EJ3,Tofield AB CNR Station EKEJ2023,53.36745363,-112.666793,DO33PI
CABOTA,1,B/CA-0099,FRP JJ4,Minburn AB CNR Station EKJJ3820,53.31657003,-111.3645136,DO43HH
CABOTA,1,B/CA-0100,FRP EH2,Chauvin AB CNR Station EKEH5342,52.69197833,-110.1428252,DO42WQ
CABOTA,1,B/CA-0101,FRP JH3,Alliance AB CNR Station EKJH1027,52.43379463,-111.7857609,DO42CK
CABOTA,1,B/CA-0102,FRP HH32,Big Valley CNR Station EKHH1003,52.03479493,-112.7492356,DO32PA
CABOTA,1,B/CA-0103,FRP GG4,Rockyford AB CNR Station EKGG4918,51.23312363,-113.1404749,DO31KF
CABOTA,1,B/CA-0104,FRP GJ23,Fort Saskatchewan AB Post Office Bldg,53.70071573,-113.2094659,DO33JQ
CABOTA,1,B/CA-0105,FRP KJ2,Marwayne AB CPR Station,53.51688843,-110.331258,DO43UM
CABOTA,1,B/CA-0106,FRP GJ3,Calmar AB CPR Station EKGJ,53.25794813,-113.8092678,DO33CG
CABOTA,1,B/CA-0107,FRP GH22,Hobbema AB CPR Station,52.83443203,-113.447207,DO32GU
CABOTA,1,B/CA-0108,FRP HH2,Daysland AB CPR Station,52.86395243,-112.2627512,DO32UU
CABOTA,1,B/CA-0109,FRP FH22,Rimbey AB CPR Station,52.64301183,-114.2201363,DO22VP
CABOTA,1,B/CA-0110,FRP EH4,Sylvan Lake CPR Station,52.30762013,-114.0979947,DO22WH
CABOTA,1,B/CA-0111,FRP GH4,Alix AB CPR Station,52.39948563,-113.1865026,DO32JJ
CABOTA,1,B/CA-0112,FRP JH32,Castor AB CPR Station,52.21975813,-111.9066167,DO42BF
CABOTA,1,B/CA-0113,FRP KH3,Consort AB CPR Station,52.00447183,-110.7821225,DO42OA
CABOTA,1,B/CA-0114,FRP FG2,Didsbury AB CPR Station,51.66083593,-114.136516,DO21WP
CABOTA,1,B/CA-0115,FRP FG23,Carstairs AB CPR Station,51.56493963,-114.0985975,DO21WN
CABOTA,1,B/CA-0116,FRP HG32,Hussar AB CPR Station,51.04108053,-112.6813788,DO31PA
CABOTA,1,B/CA-0117,FRP KF1,Buffalo AB CPR Station,50.80972123,-110.7002999,DO40PT
CABOTA,1,B/CA-0118,FRP HF1,Milo AB CPR Station,50.56998523,-112.8821307,DO30NN
CABOTA,1,B/CA-0119,FRP KF3,Medicine Hat AB CPR Station,50.03581693,-110.6663699,DO40QA
CABOTA,1,B/CA-0120,FRP HE15,Lethbridge AB CPR Station,49.69822663,-112.8355835,DN39NQ
CABOTA,1,B/CA-0121,FRP JF4,Tilley AB CPR Station,50.44961053,-111.6540085,DO40EK
CABOTA,1,B/CA-0122,FRP HF3,Lomond AB CPR Station,50.35053083,-112.642324,DO30QI
CABOTA,1,B/CA-0123,FRP GH?,Stavely AB CPR Station,50.16093093,-113.6407853,DO30ED
CABOTA,1,B/CA-0124,FRP GF42,Champion AB CPR Station,50.23796023,-113.1494469,DO30KF
CABOTA,1,B/CA-0125,FRP GH?,Wetaskiwin AB CPR Station,52.96903323,-113.3734434,DO32HX
CABOTA,1,B/CA-0126,FRP ??,Redcliff AB CPR Station,50.08119503,-110.7813194,DO40OB
CABOTA,1,B/CA-0127,FRP HJ2,Andrew AB CPR Station,53.87966153,-112.3351766,DO33TV
CABOTA,1,B/CA-0128,FRP HE3,Raymond AB CPR Station,49.47469873,-112.6568485,DN39QL
CABOTA,1,B/CA-0129,FRP GE3,Glenwoodville AB CPR Station,49.36538003,-113.5164251,DN39FI
CABOTA,1,B/CA-0130,FRP HK42,Milk River AB CPR Station,49.15012593,-112.0869122,DN39WD
CABOTA,1,B/CA-0131,FRPH?4,Warner AB CPR Station,49.28321863,-112.2073588,DN39VG
CABOTA,1,B/CA-0132,FRP CJ34,Pocahontas AB Federal National Resources Bldg EKCJ0518,53.20000003,-117.916667,DO13AE
CABOTA,1,B/CA-0133,FRP BJ43,"Snaring, AB Federal National Resources building, EEBJ5605",53.07888203,-118.074971,DO03XB
CABOTA,1,B/CA-0134,FRP BH23,Decoigne AB Federal National Resources EKBH3756,52.88434503,-118.3706049,DO02TV
CABOTA,1,B/CA-0135,FRP CH13,"Athabasca Falls AB, Federal National Resources, EKCH1040",52.66443703,-117.8837673,DO12BP
CABOTA,1,B/CA-0136,FRP CH4,"Poboktan, AB Federal National Resources EKCH3228",52.44194443,-117.2130555,DO12JK
CABOTA,1,B/CA-0137,FRP DG2,Ya-ha-tinda AB Federal National Resources (not sure about location),51.75365903,-115.5812789,DO21FS
CABOTA,1,B/CA-0138,FRP?? 52,"Eisenhower, AB Fed Natl Res",51.32734863,-115.9657409,DO21AH
CABOTA,1,B/CA-0139,FRP ?,"Panther River, AB Fed Natl Res Bldg, coordinates unclear",51.62641533,-115.4028287,DO21HP
CABOTA,1,B/CA-0140,FRP EG34,"Healy Creek, AB Fed Natl Res EKEG2020",51.10803873,-115.7988274,DO21CC
CABOTA,1,B/CA-0141,FRP EG43,Minnewanka AB Fed Natl Res Bldg EKEG3228,51.26406863,-115.3745674,DO21HG
CABOTA,1,B/CA-0142,FRP EF22,Spray River AB Fed National REsources Building EKEF 3550,51.16066883,-115.5590577,DO21FD
CABOTA,1,B/CA-0143,FRP GF3,Saint Ambroise,50.25589903,-98.037334,EO00XG
CABOTA,1,B/CA-0144,FRP DKBK 4,"Langara Point, DKBK5818, Department of Transport, Marine (no shelter planned)",54.25540413,-133.059686,CO34LG
CABOTA,1,B/CA-0145,FRP CK3,"Naden Harbour, DKCK2012, BC Packers Cannery",54.01264673,-132.5776338,CO34RA
CABOTA,1,B/CA-0146,FRP CK4,"Masset, DKCK 5002, DND (RCN) (no shelter planned)",54.02722225,-132.125,CO34WA
CABOTA,1,B/CA-0147,FRP EK1,"Green Island Lightstation, DKEK 2530, DOT (Marine)",54.56831793,-130.7069263,CO44PN
CABOTA,1,B/CA-0148,FRP EK4,"Digby Island, DKEK3018, Department of Transport, Air",54.28660473,-130.4448386,CO44SG
CABOTA,1,B/CA-0149,FRP EK42,"Prince Rupert, DKEK4518, RCMP (no shelter planned)",54.31503673,-130.3208187,CO44UH
CABOTA,1,B/CA-0150,FRP EK43,"Barrett Rock, DKEK4503, DOT Marine",54.06748493,-130.5260351,CO44RB
CABOTA,1,B/CA-0151,FRP GK1,"Terrace, DKGK 2532, DOT Air (no shelter planned)",54.51819253,-128.6031539,CO54QM
CABOTA,1,B/CA-0152,FRP GK2,"Dorreen, DKGK 3950, Post Office",54.83888903,-128.3458329,CO54TU
CABOTA,1,B/CA-0153,FRP GK3,"Kitimat, DKGK2004, RCMP (no shelter planned)",54.04936603,-128.6283529,CO54QB
CABOTA,1,B/CA-0154,FRP HK2,"Smithers, DKHK4847, DOT (Air) (no shelter planned)",54.82432833,-127.1842565,CO64JT
CABOTA,1,B/CA-0155,FRP HK22,"Telkwa, DKHK5540, CNR (no shelter planned)",54.69152333,-127.0500721,CO64LQ
CABOTA,1,B/CA-0156,FRP JK2,"Topley, DKJK4232, BC Forest Service (no shelter planned)",54.50505103,-126.296656,CO64UM
CABOTA,1,B/CA-0157,FRP JK3,"Houston, DKJK2025, BC Forest Service (no shelter planned)",54.39799723,-126.6482087,CO64QJ
CABOTA,1,B/CA-0158,FRP JK4,"Noralee, DKJK3200, Post Office (no shelter planned)",53.98419503,-126.433459,CO63SX
CABOTA,1,B/CA-0159,FRP KK3,"Burns Lake, DKKK1515, BC Forest Service (no shelter planned)",54.23341483,-125.763613,CO74CF
CABOTA,1,B/CA-0160,FRP KK32,"Francois Lake, BC, DKKK 1604, Post Office (no shelter planned)",54.05138883,-125.7428288,CO74DB
CABOTA,1,B/CA-0161,FRP KK4,"Endako, DKKK6005, CNR, (no shelter planned)",54.08566883,-125.0211534,CO74LC
CABOTA,1,B/CA-0162,FRP LK4,"Fort St . James, DKLK 4528, BC Forest Service, (no shelter planned)",54.47471953,-124.2175643,CO74VL
CABOTA,1,B/CA-0163,FRP LK42,"Vanderhoof, DKLK6002, BC Forest Service (no shelter planned)",54.01397983,-124.0129801,CO74XA
CABOTA,1,B/CA-0164,FRP MK2,"McLeod Lake, DKMK 6060, West Coast Transmission (no shelter planned)",55.03174473,-123.0330174,CO85LA
CABOTA,1,B/CA-0165,FRP NK3,"Summit Lake, DKNK2218, BC Forest Service",54.28190103,-122.640001,CO84QG
CABOTA,1,B/CA-0166,FRP NK4,"Aleza Lake, DKNK5818, BC Forest Service,",54.11666703,-122.033333,CO84XC
CABOTA,1,B/CA-0167,FRP CJ2,"Port Clements, DKCJ4840, Post Office (no shelter planned)",53.68871373,-132.1847553,CO33VQ
CABOTA,1,B/CA-0168,FRP CJ4,"Queen Charlotte, DKCJ4840, RCMP (no shelter planned)",53.25392973,-132.0705812,CO33XG
CABOTA,1,B/CA-0169,FRP DJ3,"Sandspit, DKDJ1013, DOT (Air) (no shelter planned)",53.25306953,-131.8172174,CO43CG
CABOTA,1,B/CA-0170,FRP DJ32,"Aero, DKDJ0203, Logging Camp",53.06008193,-131.966705,CO43AB
CABOTA,1,B/CA-0171,FRP EJ3,"Bonilla Island Lighthouse, DKEJ2230, DOT (Marine) (no shelter planned)",53.49275073,-130.6370964,CO43QL
CABOTA,1,B/CA-0172,FRP FJ3,"Ethelda Bay, DKFJ2503, DOT (Air) (no shelter planned)",53.77722225,-99.00333333,EO03LS
CABOTA,1,B/CA-0173,FRP GJ3,"Butedale, DKGJ2010, New England Fish Cannery, (no shelter planned)",53.16005643,-128.6952806,CO53PD
CABOTA,1,B/CA-0174,FRP HJ1,"Kemano, DKHJ0535, Aluminum Company of Canada, no shelter planned",53.56059403,-127.9397731,CO63AN
CABOTA,1,B/CA-0175,FRP JJ2,"Wistaria, DKJJ4053, Post Office (no shelter planned)",53.85000003,-126.266667,CO63UU
CABOTA,1,B/CA-0176,FRP JJ22,"Ootsa Lake, DKJJ6048, Post Office (no shelter planned)",53.80682103,-126.042532,CO63XT
CABOTA,1,B/CA-0177,FRP KJ1,"Grassy Plains, DKKJ0858, Cattle Ranch (Mr. Bickle) (no shelter planned)",53.96768853,-125.9530096,CO73AX
CABOTA,1,B/CA-0178,FRP NJ1,"Prince George, DKNJ1355, DOT (air), location CD Northern Zone HQ",53.88411323,-122.6739882,CO83PV
CABOTA,1,B/CA-0179,FRP NJ12,"Red Rock, DKNJ2030, Post Office",53.68011303,-122.672359,CO83PQ
CABOTA,1,B/CA-0180,FRP NJ32,"Cinema, DKNJ2812, Post Office",53.23459403,-122.446586,CO83SF
CABOTA,1,B/CA-0181,FRP PJ1,"Hutton Mills, DKPJ2559, CNR",53.98853873,-121.6217316,CO93EX
CABOTA,1,B/CA-0182,FRP PJ2,"Penny, DKPJ3840, BC Forest Service",53.84336183,-121.2924098,CO93IU
CABOTA,1,B/CA-0183,FRP PJ3,"Wells, DKPJ2717, BC Forest Service",53.10307693,-121.5706006,CO93FC
CABOTA,1,B/CA-0184,FRP QJ1,"Dome Creek, DKQJ0034, BC Forest Service",53.75022303,-121.0345609,CO93LS
CABOTA,1,B/CA-0185,FRP QJ4,"Lamming Mills, DKQJ3222, Post Office",53.35000003,-120.266667,CO93UI
CABOTA,1,B/CA-0186,FRP QJ42,"McBride, DKQJ3818, BC Forest Service",53.30134703,-120.168461,CO93VH
CABOTA,1,B/CA-0187,FRP GH1,"Boat Bluff, BC, DKGH3033, DOT (Marine), (no shelter planned)",52.64353773,-128.5226947,CO52RP
CABOTA,1,B/CA-0188,FRP GH12,"Klemtu, DKGH2837, Canadian Fish Co Cannery (no shelter planned)",52.59464483,-128.5226426,CO52RO
CABOTA,1,B/CA-0189,FRP GH4,"McInnes Island, DKGH3229, DOT (Air), no shelter planned",52.26237973,-128.7225831,CO52PG
CABOTA,1,B/CA-0190,FRP GH42,"Dryad Point, DKGH4517, DOT (Marine), no shelter planned",52.17404073,-128.1196987,CO52WE
CABOTA,1,B/CA-0191,FRP HH3,"Ocean Falls, DKHH2022, RCMP, no shelter planned",52.35402103,-127.693746,CO62DI
CABOTA,1,B/CA-0192,FRP HH32,"Pointer Island, DKHH0300, DOT (Marine), no shelter planned",52.06118643,-127.9485943,CO62AB
CABOTA,1,B/CA-0193,FRP JH3,"Bella Coola, DKJH1523, RCMP, no shelter planned",52.37212773,-126.7539346,CO62OI
CABOTA,1,B/CA-0194,FRP KH4,"Anahim Lake, DKKH4290, Post Office, no shelter planned",52.46666703,-125.316667,CO72IL
CABOTA,1,B/CA-0195,FRP MH3,"Redstone, DKMH1808, Post Office",52.12466503,-123.681047,CO82DC
CABOTA,1,B/CA-0196,FRP MH4,"Alexis Creek, DKMH1808, RCMP",52.08298603,-123.277992,CO82IB
CABOTA,1,B/CA-0197,FRP NH1,"Quesnel, DKNH3259, DOT (Air)",53.02615923,-122.505865,CO83RA
CABOTA,1,B/CA-0198,FRP NH2,"Marguerite, DKNH 3532, Post Office",52.50147503,-122.4302779,CO82SM
CABOTA,1,B/CA-0199,FRP NH4,"Soda Creek, DKNH4523, Post Office",52.35000003,-122.2833331,CO82UI
CABOTA,1,B/CA-0200,FRP NH42,"Williams Lake, DKNH5207, RCMP",52.14167363,-122.1416885,CO82WD
CABOTA,1,B/CA-0201,FRP PH1,"Likely, BC, DKPH4538, BC Forest Service (manned 6 months only a year)",52.61666703,-121.5500001,CO92FO
CABOTA,1,B/CA-0202,FRP PH2,"Keithley Creek Post Office, DKPH3836",52.76666703,-121.416667,CO92GS
CABOTA,1,B/CA-0203,FRP PH4,"Horsefly Dominion Fisheries Experimental Station, DKPH3722",52.33273003,-121.417202,CO92GH
CABOTA,1,B/CA-0204,FRP DG2,"Cape St James Airport, DOT Air, DKDG5956 (no shelter planned)",51.93583863,-131.0156062,CO41LW
CABOTA,1,B/CA-0205,FRP HG1,"Namu Cannery, DKHG1050, no shelter planned",51.86090873,-127.8672666,CO61BU
CABOTA,1,B/CA-0206,FRP HG3,"Egg Island, DOT (Marine), DKHG1117, no shelter planned",51.24968743,-127.8350715,CO61BF
CABOTA,1,B/CA-0207,FRP HG32,"Pine Island, DOT (Marine), DKHG1027, no shelter planned",50.97595583,-127.7281207,CO60DX
CABOTA,1,B/CA-0208,FRP LG1,"Kleena Kleene DOT(Air), DKLG0556, no shelter planned",51.95726603,-124.8856861,CO71NW
CABOTA,1,B/CA-0209,FRP MG2,"Hanceville Post Office, DKMG5857",51.91944403,-123.041667,CO81LW
CABOTA,1,B/CA-0210,FRP MG22,"Big Creek Post Office, DKMG5843",51.71666703,-123.0333331,CO81LR
CABOTA,1,B/CA-0211,FRP NG1,"Riske Creek Post Office, DKNG3057",51.96841503,-122.529743,CO81RX
CABOTA,1,B/CA-0212,FRP NG2,"Alkali Lake Post Office, DKNG4848",51.78856303,-122.2283371,CO81VS
CABOTA,1,B/CA-0213,FRP NG22,"Dog Creek Post Office, DKNG4835",51.58161303,-122.237828,CO81VN
CABOTA,1,B/CA-0214,FRP NG4,"Big Bar Creek Post Office, DKNG5512",51.17798303,-122.077913,CO81XE
CABOTA,1,B/CA-0215,FRP PG2,"Lac La Hache West Coast Transmission Building, DKPG3548",51.81273703,-121.4720029,CO91GT
CABOTA,1,B/CA-0216,FRP PG22,"100 Mile House RCMP Detachment, DKPG4238",51.64397053,-121.2950097,CO91IP
CABOTA,1,B/CA-0217,FRP PG3,"Clinton RCMP Detachment, DKPG1205",51.09269943,-121.5865308,CO91EC
CABOTA,1,B/CA-0218,FRP PG4,"70 Mile House Post Office, DKPG3818",51.30313603,-121.3957691,CO91HH
CABOTA,1,B/CA-0219,FRP QG1,"Mahood Falls Post Office, DKQG2050",51.83873803,-120.64945,CO91QU
CABOTA,1,B/CA-0220,FRP QG2,"Clearwater BC Forest Service, DKQG6040",51.64156703,-120.031234,CO91XP
CABOTA,1,B/CA-0221,FRP QG3,"Little Fort Post Office, DKQG4023",51.42396533,-120.2053428,CO91VK
CABOTA,1,B/CA-0222,FRP QG4,"Chu Chua CNR Station, DKQG4222",51.35405273,-120.162017,CO91WI
CABOTA,1,B/CA-0223,FRP QG42,"McClure CNR Station, DKQG5002",51.03271663,-120.2252576,CO91VA
CABOTA,1,B/CA-0224,FRP GF2,"Cape Scott Lighthouse (DOT Marine), DKGF3545, no shelter planned",50.78232963,-128.4270165,CO50SS
CABOTA,1,B/CA-0225,FRP GF22,"RCAF Station Holberg, DKGF4540, no shelter planned.",50.64044913,-128.1301304,CO50WP
CABOTA,1,B/CA-0226,FRP GF4,"Kains Island DOT (Marine) - Lighthouse? DKGF5828, no shelter planned",50.44139443,-128.0324508,CO50XK
CABOTA,1,B/CA-0227,FRP HF1,"Bull Harbour Airport, DOT(Air), DKHF3035, no shelter planned",50.91591733,-127.9340098,CO60AV
CABOTA,1,B/CA-0228,FRP JF4,"Kelsey Bay Post Office, DKJF6025,",50.39455683,-125.9600614,CO70AJ
CABOTA,1,B/CA-0229,FRP HF12,"Port Hardy Airport, DOT(Air) DKHF3035, no shelter planned",50.68382393,-127.3772351,CO60HQ
CABOTA,1,B/CA-0230,FRP HF4,"Port Alice RCMP Detachment, DKHF3525, no shelter planned",50.42542893,-127.4877075,CO60GK
CABOTA,1,B/CA-0231,FRP JF1,"Sullivan Bay Post Office, DKJF1055",50.88502663,-126.8259476,CO60OV
CABOTA,1,B/CA-0232,FRP JF12,"Alert Bay DOT (Air), DKJF0335, no shelter planned",50.58448553,-126.9254094,CO60MO
CABOTA,1,B/CA-0233,FRP KF4,"Chatham Point Lighthouse, DKKF3522,",50.33361113,-125.4461111,CO70GI
CABOTA,1,B/CA-0234,FRP KF42,"Campbell River BC Forest Service, DKKF4502,",50.03312263,-125.2733353,CO70IA
CABOTA,1,B/CA-0235,FRP LF3,"Refuge Cove Post Office, DKLF 1008, doubtful shelter planned here",50.12374873,-124.8390156,CO70NC
CABOTA,1,B/CA-0236,FRP LF32,"Brem River Post Office, DKLF1028",50.43842993,-124.663664,CO70QK
CABOTA,1,B/CA-0237,FRP MF4,"Alta Lake, Rainbow Lodge (Alec Greenwood), DKMF0207",50.12066403,-122.9839263,CO80MC
CABOTA,1,B/CA-0238,FRP NF1,"Bralorne RCMP Detachment, DKNF0247",50.77049003,-122.802284,CO80OS
CABOTA,1,B/CA-0239,FRP NF2,"Shalalth BC Electric Co Ltd, DKNF4844",50.72659443,-122.2446359,CO80VR
CABOTA,1,B/CA-0240,FRP NF3,"Pemberton BC Forest Service, DKNF1219",50.32202803,-122.8050498,CO80OH
CABOTA,1,B/CA-0241,FRP PF1,"Lilooet RCMP Detachment, DKPF4002",50.68630173,-121.9367502,CO90AQ
CABOTA,1,B/CA-0242,FRP PF2,"Cache Creek Post Office, DKFF4048",50.81080993,-121.3233237,CO90IT
CABOTA,1,B/CA-0243,FRP PF22,"Ashcroft Airport, DOT (Air), DKPF3542",50.77548003,-121.3215149,CO90IS
CABOTA,1,B/CA-0244,FRP PF3,"Lytton Airport, DOT(Air), DKPF3015",50.24567403,-121.5673448,CO90FF
CABOTA,1,B/CA-0245,FRP PF4,"Spences Bridge RCMP Detachment, DKPF4023",50.41405303,-121.359529,CO90HJ
CABOTA,1,B/CA-0246,FRP QF2,"Rayleigh, DND (Army), DKQF4248",50.80082403,-120.3207911,CO90UT
CABOTA,1,B/CA-0247,FRP QF22,"Kamloops bunker (RCN), DKQF4140",50.67646923,-120.3872851,CO90TQ
CABOTA,1,B/CA-0248,FRP QF3,"Merritt RCMP Detachment, DKQF1507",50.11130793,-120.7862222,CO90OC
CABOTA,1,B/CA-0249,FRP QF4,"Lac Le Jeune, Fishing Lodge? DKQF3028",50.48736303,-120.495422,CO90SL
CABOTA,1,B/CA-0250,FRP JE1,"Zeballos RCMP Detachment, DKJE1058",49.98180303,-126.845404,CN69NX
CABOTA,1,B/CA-0251,FRP JE12,"Nootka, DOT (Marine), DKJE2235, no shelter planned",49.62446313,-126.6239849,CN69QO
CABOTA,1,B/CA-0252,FRP JE3,"Estevan Point DOT Air, DKJE3024, no shelter planned",49.38307133,-126.5442254,CN69RJ
CABOTA,1,B/CA-0253,FRP KE2,"Cape Mudge Lighthouse (DOT Marine), DKKE5059",49.99855193,-125.1955591,CN79JX
CABOTA,1,B/CA-0254,FRP KE22,"Black Creek Post Office, DKKE5255",49.83296203,-125.1293711,CN79KT
CABOTA,1,B/CA-0255,FRP KE3,"Tofino DOT (Air), DKKE0508",49.07496443,-125.7654333,CN79CB
CABOTA,1,B/CA-0256,FRP LE1,"Lund BC Forestry Service, DKLE1759",49.98171273,-124.7590955,CN79OX
CABOTA,1,B/CA-0257,FRP LE12,"Powell River RCMP Detachment, DKLE3050",49.83523523,-124.5247061,CN79RU
CABOTA,1,B/CA-0258,FRP LE13,"CFB Comox (DND-RCAF), DKLE0240",49.71321853,-124.905753,CN79NR
CABOTA,1,B/CA-0259,FRP LE3,"Chrome Island Lighthouse, DOT (Marine), DKLE5020",49.47222683,-124.6846654,CN79PL
CABOTA,1,B/CA-0260,FRP LE32,"Port Alberni RCMP Detachment, DKLE1015",49.23388823,-124.8055494,CN79OF
CABOTA,1,B/CA-0261,FRP LE4,"Ballenas Island Lighthouse, DOT (Marine), DKLE2028",49.34634333,-124.1578126,CN79WI
CABOTA,1,B/CA-0262,FRP ME2,"Garibaldi Post Office, DKME5055",49.97104103,-123.142923,CN89KX
CABOTA,1,B/CA-0263,FRP ME22,"Squamish BC Forestry Service, DKME5042",49.70163393,-123.1558121,CN89KQ
CABOTA,1,B/CA-0264,FRP ME3,"Sechelt BC Forestry Service, DKME1828",49.47417363,-123.7545601,CN89CL
CABOTA,1,B/CA-0265,FRP ME32,"Gibsons Landing RCMP Detachment, DKME3030",49.40094313,-123.507504,CN89FJ
CABOTA,1,B/CA-0266,FRP ME33,"Nanaimo Camp, DND (Army), DKME0210",49.15234353,-123.9646896,CN89AD
CABOTA,1,B/CA-0267,FRP ME4,"Point Atkinson Lighthouse, DOT Marine, DKME4520",49.32993273,-123.2649923,CN89IH
CABOTA,1,B/CA-0268,FRP ME42,"RCAF Station Sea Island, DKME5512",49.19897533,-123.1885535,CN89JE
CABOTA,1,B/CA-0269,FRP ME43,"Vancouver Wireless Station (Ladner, BC, Canadian Army), DKME5805",49.07615973,-123.0072708,CN89LB
CABOTA,1,B/CA-0270,FRP NE3,"Port Coquitlam BC Forest Service, DKNE1516",49.26283823,-122.7810708,CN89OG
CABOTA,1,B/CA-0271,FRP NE32,"Burnaby RCMP Detachment, DKNE0207",49.24880913,-122.9805104,CN89MF
CABOTA,1,B/CA-0272,FRP NE33,"Green Timbers BC Forest Service, DKNE1010",49.17962793,-122.8306921,CN89OE
CABOTA,1,B/CA-0273,FRP NE34,"Langley RCMP Detachment, DKNE2306",49.10417793,-122.6603519,CN89QC
CABOTA,1,B/CA-0274,FRP NE4,"Abbotsford Airport, DOT Air, DKNE3602",49.02491753,-122.3683373,CN89TA
CABOTA,1,B/CA-0275,FRP NE35,"Douglas Immigration and Citizenship Building, DKNE1500",49.00562643,-122.7451575,CN89PA
CABOTA,1,B/CA-0276,FRP PE2,"Boston Bar RCMP Detachment, DKPE4052",49.86342583,-121.4425737,CN99GU
CABOTA,1,B/CA-0277,FRP PE22,"Yale CPR Station, DKPE2734",49.56106203,-121.4291721,CN99GN
CABOTA,1,B/CA-0278,FRP PE3,"Agassiz BC Forest Service, DKPE1515",49.23894093,-121.7658827,CN99CF
CABOTA,1,B/CA-0279,FRP PE32,"Vedder Crossing, Canadian Army, DKPE0306",49.11131503,-121.957894,CN99AC
CABOTA,1,B/CA-0280,FRP PE4,"Hope RCMP Detachment, DKPE3522",49.37949103,-121.4416917,CN99GJ
CABOTA,1,B/CA-0281,FRP QE1,"Aspen Grove Post Office, DKQE2537",49.93029203,-120.629654,CN99QW
CABOTA,1,B/CA-0282,FRP QE12,"Brookmere CPR Station, DKQE 1055",49.81778703,-120.872143,CN99NT
CABOTA,1,B/CA-0283,FRP QE3,"Princeton RCMP Detachment, DKQE3228",49.45895883,-120.5061567,CN99RL
CABOTA,1,B/CA-0284,FRP QE32,"Manning Park BC Forest Service, DKQE1303",49.06464703,-120.781581,CN99OB
CABOTA,1,B/CA-0285,FRP QE4,"Hedley Post Office, DKQE5521",49.35717703,-120.076544,CN99XI
CABOTA,1,B/CA-0286,FRP QF1,"Savona West Coast Transmission Facility, DKQF0946",50.75276493,-120.843769,CO90NS
CABOTA,1,B/CA-0287,FRP KD12,"Amphitrite Point Lighthouse, DOT MArine, DKKD2555",48.92155623,-125.5410964,CN78FW
CABOTA,1,B/CA-0288,FRP KD1,"Ucluelet DOT Marine building, DKKD2555",48.94159973,-125.5463446,CN78FW
CABOTA,1,B/CA-0289,FRP KD2,"Pachena Point Lighthouse, DOT Marine, DKKD5545",48.72222163,-125.0971414,CN78KR
CABOTA,1,B/CA-0290,FRP LD1,"Carmanah Point Light Station, DOT Marine, DKLD1035",48.61169447,-124.7513056,CN78OO
CABOTA,1,B/CA-0291,FRP LD2,Lake Cowichan RCMP Detachment. DKLD5751,48.82581183,-124.054167,CN78XT
CABOTA,1,B/CA-0292,FRP LD22,"Port Renfrew Post Office, DKLD5850",48.55296603,-124.422299,CN78SN
CABOTA,1,B/CA-0293,FRP LD4,"River Jordan BC Hydro Station, DKLD5825",48.42976203,-124.0520463,CN78XK
CABOTA,1,B/CA-0294,FRP MD1,"Chemainus RCMP Detachment, DKMD1857",48.93016483,-123.7344815,CN88DW
CABOTA,1,B/CA-0295,FRP MD12,"Shawnigan Lake RCMP Detatchment, DKMD2038",48.65117933,-123.6449962,CN88EP
CABOTA,1,B/CA-0296,FRP MD2,"Active Pass Lighthouse, DOT Marine, DKMD4050",48.87346683,-123.2915237,CN88IU
CABOTA,1,B/CA-0297,FRP MD22,"Mount Bruce BC Forest Service, DKMD3050 (manned 5 months of year)",48.76736313,-123.5077644,CN88FS
CABOTA,1,B/CA-0298,FRP MD23,"Saturna Island Lighthouse, DOT Marine, DKMD5845",48.78364153,-123.0459717,CN88LS
CABOTA,1,B/CA-0299,FRP MD24,"Patricia Bay, DND (RCN), DKMD3038",48.64660673,-123.4375526,CN88GP
CABOTA,1,B/CA-0300,FRP MD3,"Sheringham Point Lighthouse, DOT Marine, DKMD3038",48.37669383,-123.9210417,CN88AJ
CABOTA,1,B/CA-0301,FRP MD32,"Sooke BC RCMP Detachment, DKMD2023",48.37403463,-123.7355539,CN88DI
CABOTA,1,B/CA-0302,FRP MD33,"Race Rocks Lighthouse, DOT Marine, DKMD3019",48.29797863,-123.5316533,CN88FH
CABOTA,1,B/CA-0303,FRP MD4,"Discovery Island Lighthouse, DOT Marine, DKMD4535",48.42440843,-123.2257852,CN88JK
CABOTA,1,B/CA-0304,FRP AH1,"Tete Jaune Cache BC Forest Service, EKAH3059",52.96588503,-119.43007,DO02GX
CABOTA,1,B/CA-0305,FRP AH2,"Red Pass CNR Station, EKAH5959",52.98678723,-119.0084552,DO02LX
CABOTA,1,B/CA-0306,FRP AH22,"Valemount CNR Station, EKAH4550",52.83478313,-119.2617222,DO02IU
CABOTA,1,B/CA-0307,FRP AH23,"Albreda CNR Station, EKAH4940",52.65725133,-119.1943113,DO02JP
CABOTA,1,B/CA-0308,FRP AH4,"Blue River BC Forest Service, EKAH4505",52.10646493,-119.3048807,DO02IC
CABOTA,1,B/CA-0309,FRP BH4,"Boat Encampment BC Forest Service, EKBH3209, no shelter planned",52.11666669,-118.4333333,DO02SC
CABOTA,1,B/CA-0310,FRP AG2,"McMurphy Post Office, EKAG3040",51.66728893,-119.515984,DO01FQ
CABOTA,1,B/CA-0311,FRP AG22,"Avola CNR Station, EKAG4045",51.77887573,-119.3206118,DO01IS
CABOTA,1,B/CA-0312,FRP CG3,"Glacier CPR Station, EKCG2816",51.26578093,-117.516296,DO11FG
CABOTA,1,B/CA-0313,FRP CG4,Beavermouth CPR Station? EKCG3121,52.72636123,-122.1233689,CO82WR
CABOTA,1,B/CA-0314,FRP DG3,"Golden RCMP Detachment, EKDG0419",51.29611883,-116.9631367,DO11MH
CABOTA,1,B/CA-0315,FRP DG32,"Leanchoil CPR Station, EKDG2412",51.22004903,-116.5814617,DO11RF
CABOTA,1,B/CA-0316,FRP DG4,"Field RCMP Detachment, EKDG2412",51.39495303,-116.4900226,DO11SJ
CABOTA,1,B/CA-0317,FRP AF2,"Celista Post Office, EKAF3558",50.94394203,-119.349578,DO00HW
CABOTA,1,B/CA-0318,FRP AF22,"Salmon Arm RCMP Detachment, EKAF4540",50.70010343,-119.2838443,DO00IQ
CABOTA,1,B/CA-0319,FRP AF4,"Armstrong CNR Station, EKAF5028",50.44787623,-119.1947881,DO00JK
CABOTA,1,B/CA-0320,FRP AF42,"Camp Vernon, DND(Army), EKAF4515",50.25285223,-119.2722632,DO00IG
CABOTA,1,B/CA-0321,FRP BF1,"Craigellachie CPR Station, EKBF1559",50.97499543,-118.7237009,DO00PX
CABOTA,1,B/CA-0322,FRP BF12,"Sicamous BC Forest Service, EKBF0345",50.83778653,-118.9766959,DO00MU
CABOTA,1,B/CA-0323,FRP BF2,"Revelstoke RCMP Detachment, EKBF4858",50.99811503,-118.195672,DO00VX
CABOTA,1,B/CA-0324,FRP BF3,"Mabel Lake Hunting Lodge, EKBF1520",50.60349133,-118.7309566,DO00PO
CABOTA,1,B/CA-0325,FRP CF1,"Arrowhead BC Forest Service, EKCF0540",50.71111103,-117.920833,DO10AR
CABOTA,1,B/CA-0326,FRP CF12,"Beaton Post Office, EKCF1844",50.73573903,-117.731234,DO10DR
CABOTA,1,B/CA-0327,FRP CF2,Ferguson Post Office? EKCF3040,50.67655703,-117.477665,DO10GQ
CABOTA,1,B/CA-0328,FRP CF3,"Nakusp BC Forest Service, EKCF1015",50.23985373,-117.8011055,DO10CF
CABOTA,1,B/CA-0329,FRP CF32,"Arrow Park Post Office, EKCF0405",50.11666703,-117.9,DO10BC
CABOTA,1,B/CA-0330,FRP CF4,"New Denver RCMP Detachment, EKCF4000",49.99129003,-117.3720711,DN19HX
CABOTA,1,B/CA-0331,FRP DF2,"Spillimacheen BC Forest Service, EKDF3955",50.90582903,-116.365237,DO10TV
CABOTA,1,B/CA-0332,FRP DF22,"Radium Hot Springs RCMP Detachment, EKDF5839",50.62003853,-116.0733586,DO10XO
CABOTA,1,B/CA-0333,FRP DF3,"Howser Post Office, EKDF0218",50.30114603,-116.9482161,DO10MH
CABOTA,1,B/CA-0334,FRP DF32,"Johnsons Landing Post Office, EKDF1005",50.08033253,-116.8791676,DO10NB
CABOTA,1,B/CA-0335,FRP EF3,"Lake Windemere CPR Station, EKEF0129",50.51195083,-116.0287348,DO10XM
CABOTA,1,B/CA-0336,FRP EF32,"Canal Flats BC Forest Service, EKEF1010",50.15478493,-115.808063,DO20CD
CABOTA,1,B/CA-0337,FRP AE1,"Peachland Post Office, EKAE1545",49.77029943,-119.74079,DN09DS
CABOTA,1,B/CA-0338,FRP AE2,"Kelowna RCMP Detachment, EKAE3052",49.88795193,-119.4960106,DN09GV
CABOTA,1,B/CA-0339,FRP AE3,"Penticton RCMP Detachment, EKAE3630",49.49913813,-119.5937077,DN09EL
CABOTA,1,B/CA-0340,FRP AE32,"Okanagan Falls Post Office, EKAE3520",49.34488503,-119.5714929,DN09FI
CABOTA,1,B/CA-0341,FRP AE4,"Carmi CPR Station, EKAE5028",49.50000003,-119.1166667,DN09KM
CABOTA,1,B/CA-0342,FRP AE42,"Osoyoos RCMP Detachment, EKAE2002",49.03230403,-119.468163,DN09GA
CABOTA,1,B/CA-0343,FRP AE33,"Keremeos RCMP Detachment, EKAE1012",49.20246243,-119.8294828,DN09CE
CABOTA,1,B/CA-0344,FRP BE2,"Needles Post Office, EKBE5555",49.87440903,-118.097549,DN09WU
CABOTA,1,B/CA-0345,FRP BE22,"Edgewood BC Forest Service, EKBE5243",49.78293103,-118.141641,DN09WS
CABOTA,1,B/CA-0346,FRP BE3,"Midway RCMP Detachment, EKBE1201",49.01021853,-118.7743535,DN09OA
CABOTA,1,B/CA-0347,FRP BE4?,"Old Glory Mountain, DOT(Air), EKBE4515",49.14972223,-117.9122222,DN19BD
CABOTA,1,B/CA-0348,FRP BE42,"Grand Forks RCMP Detachment, EKBE3002",49.03009463,-118.4451392,DN09SA
CABOTA,1,B/CA-0349,FRP CE1,"Slocan BC Forest Service, EKCE3028",49.76299303,-117.46992,DN19GS
CABOTA,1,B/CA-0350,FRP CE3,"Castlegar BC Forest Service, EKCE2020",49.32374083,-117.6593341,DN19EH
CABOTA,1,B/CA-0351,FRP CE32,"Trail RCMP Detachment, EKCE1506",49.09656763,-117.71173,DN19DC
CABOTA,1,B/CA-0352,FRP CE4,"Nelson RCMP Detachment, CKCE4530",49.49281193,-117.2948343,DN19IL
CABOTA,1,B/CA-0353,FRP CE42,"Salmo RCMP Detachment, CKCE4010",49.19489203,-117.2792769,DN19IE
CABOTA,1,B/CA-0354,FRP DE1,"Kaslo RCMP Detachment, CKDE0555",49.91424993,-116.9154503,DN19NV
CABOTA,1,B/CA-0355,FRP DE12,"Procter CPR Station, CKDE0335",49.61845203,-116.959232,DN19MO
CABOTA,1,B/CA-0356,FRP DE3,"Tye CPR Station, CKDE1515",49.32648103,-116.792372,DN19OH
CABOTA,1,B/CA-0357,FRP DE4,"Creston RCMP Detachment, CKDE3005",49.09554013,-116.5135079,DN19RC
CABOTA,1,B/CA-0358,FRP EE1,"Skookumchuck Post Office, CKEE1555",49.91248103,-115.733706,DN29DV
CABOTA,1,B/CA-0359,FRP EE12,"Kimberley RCMP Detachment, CKEE0342",49.66515673,-115.9967207,DN29AP
CABOTA,1,B/CA-0360,FRP EE3,"Cranbrook RCMP Detachment, CKEE1530",49.51296783,-115.7694002,DN29CM
CABOTA,1,B/CA-0361,FRP EE4,"Fernie RCMP Detachment, CKEE5929",49.50404523,-115.0630649,DN29LM
CABOTA,1,B/CA-0362,FRP EE42,"Elko BC Forest Service, CKEE5518",49.29903603,-115.110965,DN29KH
CABOTA,1,B/CA-0363,FRP EE43,"Newgate Post Office, CKEE5002",49.02571603,-115.197493,DN29JA
CABOTA,1,B/CA-0364,FRP FL4,"Aiyansh, Columbia Cellulose, DKFL5215",55.26100603,-129.049911,CO55LG
CABOTA,1,B/CA-0365,FRP GL4,"Cedarvale CNR Station, DKGL4002",55.01595403,-128.32244,CO55UA
CABOTA,1,B/CA-0366,FRP HL4,"Moricetown Post Office, DKHL4003",55.03333303,-127.333333,CO65IA
CABOTA,1,B/CA-0367,Nanaimo BRIDGE,,49.14826833,-123.9716193,CN89AD
CABOTA,1,B/CA-0368,NWHS FRP KC3,"Mile 1202, DND Northwest Highway Maintenance Establishment, CLKC1228",62.44409393,-140.8516254,BP92NK
CABOTA,1,B/CA-0369,NWHS FRP DE4,"Dawson City Department of Transport, CLDE3504",64.05965143,-139.4333648,CP04GB
CABOTA,1,B/CA-0370,NWHS FRP LG3,Destruction Bay YT DND Northwest Highway Maintenance Establishment,61.25247153,-138.8008311,CP01OG
CABOTA,1,B/CA-0371,NWHS FRP NA1,"Haines Junction DND Northwest Highway Maintenance Establishment, CINA3045",60.75445413,-137.5117819,CP10FS
CABOTA,1,B/CA-0372,NWHS FRP NB1,"Aishihik DOT, CLNB3035",61.60020403,-137.509432,CP11FO
CABOTA,1,B/CA-0373,NWHS FRP QD1,"Mayo DOT, CLQD0635",63.59426203,-135.8964919,CP23BO
CABOTA,1,B/CA-0374,NWHS FRP PC4,"Carmacks Yukon Forestry, CLPC4205",62.08846803,-136.28729,CP12UC
CABOTA,1,B/CA-0375,NWHS FRP QA2,"Whitehorse DND HQ NWHS, CLQA5743",60.72118713,-135.0568448,CP20LR
CABOTA,1,B/CA-0376,NWHS FRP AA3,"Carcross Department of Indian Affairs building, DLAA1810",60.16758513,-134.7073506,CP20PE
CABOTA,1,B/CA-0377,NWHS FRP BA4,"Brooks Brook DND Northwest Highway Maintenance Establishment, DLBA4925",60.41683963,-133.1950138,CP30JK
CABOTA,1,B/CA-0378,NWHS FRP CA3,"Teslin Department of Transport, DLCA1509",60.16860523,-132.7203712,CP30PE
CABOTA,1,B/CA-0379,NWHS FRP EA4,"Swift River DND Northwest Highway Maintenance Establishment, DLEA4900",60.03151303,-131.0546789,CP40LA
CABOTA,1,B/CA-0380,NWHS FRP GA3,"Watson Lake Department of National Defence Northwest Highway Maintenance Establishment, DLGA1207",60.06280603,-128.710913,CP50PB
CABOTA,1,B/CA-0381,District of Mackenzie FRP MK1,"Herschel Island RCMP Detachment, CLMK1035",69.57945663,-139.0762055,CP09LN
CABOTA,1,B/CA-0382,District of Mackenzie FRP QJ4,"Aklavik RCMP Detachment, CLQJ0012",68.21991603,-135.0077881,CP28LF
CABOTA,1,B/CA-0383,District of Mackenzie FRP JF3,"Norman Wells Airport, DOT, DLJF0917",65.28139513,-126.7987848,CP65OG
CABOTA,1,B/CA-0384,District of Mackenzie FRP GG3,"Fort Good Hope Airport, DOT, DLGG2215",66.25567603,-128.6340209,CP56QG
CABOTA,1,B/CA-0385,District of Mackenzie FRP KE1,"Fort Norman RCMP Detachment, DLKE2654",64.90125993,-125.577904,CP74FV
CABOTA,1,B/CA-0386,District of Mackenzie FRP BJ3,"Inuvik Naval Radio Station Inuvik, DLBJ1818",68.36074373,-133.7230178,CP38DI
CABOTA,1,B/CA-0387,District of Mackenzie FRP BH3,"Arctic Red River, RCMP Detachment, DLBH1427",67.45057703,-133.7118071,CP37DK
CABOTA,1,B/CA-0388,District of Mackenzie FRP AH3,"Fort McPherson RCMP Detachment, DLAH0727",67.43644503,-134.880755,CP27NK
CABOTA,1,B/CA-0389,District of Mackenzie FRP BK4,"Tuktoyaktuk RCMP Detachment, DLBK5827",69.44535803,-133.034181,CP39LK
CABOTA,1,B/CA-0390,District of Mackenzie FRP AJ2,"Reindeer Depot Department of Northern Affairs and Natural Resources, DLAJ5442",68.69173853,-134.1311995,CP28WQ
CABOTA,1,B/CA-0391,District of Mackenzie FRP KN4,"Sachs Harbour RCMP Detachment, DLKN0000",71.98512303,-125.2464831,CQ71JX
CABOTA,1,B/CA-0392,District of Mackenzie FRP LL4,"Cape Parry RCMP Detachment, DLLL3608",70.13333333,-124.4,CQ70TD
CABOTA,1,B/CA-0393,District of Mackenzie  FRP PB2,"Fort Simpson Airport, DOT, DLPH3752",61.75895313,-121.2315816,CP91JS
CABOTA,1,B/CA-0394,District of Mackenzie FRP QB1,"Jean Marie River, Department of Northern Affairs and Natural Resources (staffed by school teacher?), DLQB2232",61.53292703,-120.634679,CP91QM
CABOTA,1,B/CA-0395,District of Mackenzie FRP MD3,"Wrigley Airport, DOT, DLMD2316",63.21095203,-123.440071,CP83GF
CABOTA,1,B/CA-0396,District of Mackenzie FRP MA4,"Fort Liard RCMP Detachment, DLMA3215",60.23957383,-123.4733159,CP80GF
CABOTA,1,B/CA-0397,District of Mackenzie FRP MF4,"Fort Franklin Hudson's Bay Company, DLMF3411",65.18868303,-123.415802,CP85HE
CABOTA,1,B/CA-0398,District of Mackenzie FRP CB3,"Fort Providence, Department of Transport (Air), ELCB2121",61.35762383,-117.6606539,DP11EI
CABOTA,1,B/CA-0399,District of Mackenzie FRP EH2,"Coppermine Airport, DOT (Air), ELEH5550",67.81562813,-115.1399305,DP27KT
CABOTA,1,B/CA-0400,District of Mackenzie FRP DC2,"Rae RCMP Detachment, ELDC5750",62.83333333,-116.05,DP12XT
CABOTA,1,B/CA-0401,District of Mackenzie FRP JA3,"Fort Smith Airport, DOT (Air), ELJA0700",60.01951093,-111.958268,DP40AA
CABOTA,1,B/CA-0402,District of Mackenzie FRP EA1,"Hay River, DOT (Air), ELEA1751",60.81621803,-115.7853652,DP20CT
CABOTA,1,B/CA-0403,District of Mackenzie FRP GB3,"Fort Resolution Airport, DOT (Air), ELGB2010",61.18024803,-113.688943,DP31DE
CABOTA,1,B/CA-0404,District of Mackenzie FRP KC3,"Snowdrift Hudson's Bay Company, ELKC1323",62.41095003,-110.7155,DP42PJ
CABOTA,1,B/CA-0405,District of Mackenzie FRP HB3,"Rocher River Hudson's Bay Company, ELHB1524",61.38194403,-112.7402779,DP31PJ
CABOTA,1,B/CA-0406,District of Mackenzie FRP FC4,"Yellowknife Airport, DOT (Air), ELFC3927",62.47190553,-114.4390809,DP22SL
CABOTA,1,B/CA-0407,District of Mackenzie FRP FK1,"Contwoyto Lake Department of Transport Air, Pacific Western Airlines, ELKF1042",65.76416363,-111.2352438,DP45JS
CABOTA,1,B/CA-0408,District of Mackenzie FRP DD2,"Snare River Hydro Plant, ELDD1031",63.43747903,-116.1840579,DP13VK
CABOTA,1,B/CA-0409,District of Mackenzie FRP LC2,"Fort Reliance, DOT (Air), ELLC5242",64.14760393,-139.4928526,CP04GD
CABOTA,1,B/CA-0410,District of Mackenzie FRP QK4,"Cambridge Bay Airport, DOT (Air), ELQK5503",69.11686413,-105.0596814,DP79LC
CABOTA,1,B/CA-0411,District of Mackenzie FRP MG2,"Bathurst Inlet Hudson's Bay Company, ELMG5950",66.86606793,-108.1046073,DP56WU
CABOTA,1,B/CA-0412,District of Mackenzie FRP CL1,"Holman Island Hudson's Bay Company, ELCL1743",70.65795023,-117.7466991,DQ10DP
CABOTA,1,B/CA-0413,District of Mackenzie FRP MK1,"Spence Bay RCMP Detachment, FLMK2932",69.54382303,-93.523804,EP39FN
CABOTA,1,B/CA-0414,District of Mackenzie FRP FK3,"Read Island Hudson's Bay Company, ELFK2912",69.20549703,-113.8297651,DP39CE
CABOTA,1,B/CA-0415,"Continuous Wave, Fort Good Hope to Norman Wells",,65.76853555,-127.7164029,CP65DS
CABOTA,1,B/CA-0416,Continuous Wave Aklavik to Inuvik,,68.29032985,-134.365403,CP28TG
CABOTA,1,B/CA-0417,Voice communication Reindeer Depot to Inuvik,,68.5262411,-133.9271087,CP38AM
CABOTA,1,B/CA-0418,Voice communication Fort McPherson to Inuvik,,67.9059396,-134.309098,CP27UV
CABOTA,1,B/CA-0419,Voice communication Arctic Red River to Inuvik,,67.90566035,-133.7174125,CP37DV
CABOTA,1,B/CA-0420,Voice communication Tuktoyaktuk to Inuvik,,68.90305085,-133.3785994,CP38HV
CABOTA,1,B/CA-0421,Voice communication Cape Parry to Inuvik,,69.2470385,-129.0615089,CP59LF
CABOTA,1,B/CA-0422,Voice from Sachs Harbour to Inuvik,,70.17293335,-129.4847505,CQ50GE
CABOTA,1,B/CA-0423,Radio Teletype Fort Simpson to Edmonton,,57.65167105,-117.3612542,DO17HP
CABOTA,1,B/CA-0424,Voice Jean Marie River to Fort Simpson,,61.64594005,-120.9331303,CP91MP
CABOTA,1,B/CA-0425,DOT Continuous Shortwave Fort Providence to Fort Simpson,,61.55828845,-119.4461178,DP01GN
CABOTA,1,B/CA-0426,Voice from Fort Liard to Fort Providence,,60.7985988,-120.5669849,CP90RT
CABOTA,1,B/CA-0427,DOT Continuous Wave Wrigley to Fort Simpson,,62.48495255,-122.3358263,CP82TL
CABOTA,1,B/CA-0428,Voice from Fort Norman to Norman Wells,,65.0913275,-126.1883444,CP65VC
CABOTA,1,B/CA-0429,Voice Fort Franklin to Fort Providence,,63.2731534,-120.538228,CP93RG
CABOTA,1,B/CA-0430,DOT Continuous Wave Coppermine to Fort Simpson,,64.7872906,-118.1857561,DP04VS
CABOTA,1,B/CA-0431,Voice from Holman Island to Cambridge Bay,,69.88740715,-111.4031903,DP49HV
CABOTA,1,B/CA-0432,Voice from Spence Bay to Cambridge Bay,,69.33034355,-99.2917427,EP09IH
CABOTA,1,B/CA-0433,Voice from Bathurst Inlet to Cambridge Bay,,67.991466,-106.5821444,DP67RX
CABOTA,1,B/CA-0434,Voice from Contwoyto Lake to Cambridge Bay,,67.44051385,-108.1474626,DP57WK
CABOTA,1,B/CA-0435,Voice Contwoyto Lake to Yellowknife,,64.11803455,-112.8371624,DP34NC
CABOTA,1,B/CA-0436,Voice from Read Island to Cambridge Bay,,69.16118055,-109.4447233,DP59GD
CABOTA,1,B/CA-0437,Voice from Rae to Fort Providence,,62.09547855,-116.855327,DP12NC
CABOTA,1,B/CA-0438,Telephone Snare River to Yellowknife,,62.95469225,-115.3115694,DP22IW
CABOTA,1,B/CA-0439,Voice from Snowdrift to Fort Resolution,,61.795599,-112.2022215,DP31VT
CABOTA,1,B/CA-0440,Voice from Rocher River to Fort Resolution,,61.281096,-113.2146105,DP31JG
CABOTA,1,B/CA-0441,DOT Continuous Wave from Hay River to Fort Smith,,60.41786445,-113.8718166,DP30BK
CABOTA,1,B/CA-0442,DOT Continuous Wave from Fort Resolution to Fort Smith,,60.59987945,-112.8236055,DP30OO
CABOTA,1,B/CA-0443,Radio Teletype from Fort Smith to Edmonton,,56.78194995,-112.7245974,DO36PS
CABOTA,1,B/CA-0444,Radio Teletype Cambridge Bay to Edmonton,,61.33062655,-109.2753041,DP51IH
CABOTA,1,B/CA-0445,Radio Teletype from Cambridge Bay to Resolute,,71.89964095,-99.9639911,EQ01AV
CABOTA,1,B/CA-0446,"Radio Teletype from Cambridge Bay to Anchorage, Alaska",,65.16616135,-127.4802019,CP65GD
CABOTA,1,B/CA-0447,DOT Continuous Wave from Fort Reliance to Yellowknife,,63.3097547,-126.9659668,CP63MH
CABOTA,1,B/CA-0448,DOT Continuous Wave from Fort Reliance to Fort Resolution,,62.66392595,-126.5908978,CP62QP
CABOTA,1,B/CA-0449,Radio Teletype from Yellowknife to Edmonton,,58.00814725,-113.9650038,DO38AA
CABOTA,1,B/CA-0450,FRP DE22,"Reston RCMP Detachment, FKDE5534",49.5579068,-101.093633,DN99KN
CABOTA,1,B/CA-0451,FRP DE4,"Melita RCMP Detachment, FKDE4917",49.2720603,-100.9930189,DN99MG
CABOTA,1,B/CA-0452,FRP DE42,"Lyleton Customs, FKDE4501",49.0014239,-101.295451,DN99IA
CABOTA,1,B/CA-0453,FRP DE43,"Coulter Customs Building, FKDE5801",48.9999426,-101.0229012,DN98LX
CABOTA,1,B/CA-0454,FRP EE1,"Virden RCMP Detachment, FKEE0451",49.8486678,-100.9325285,DN99MU
CABOTA,1,B/CA-0455,FRP EE2,"Souris RCMP Detachment, FKEE4537",49.6207985,-100.2583026,DN99UO
CABOTA,1,B/CA-0456,FRP EE3,"Hartney Post Office, FKEE2929",49.4809474,-100.5215319,DN99RL
CABOTA,1,B/CA-0457,FRP EE32,"Deloraine RCMP Detachment, FKEE3012",49.1928819,-100.493984,DN99SE
CABOTA,1,B/CA-0458,FRP EE33,"Goodlands County Customs Office, FKEE2801",49.0001745,-100.5561869,DN99RA
CABOTA,1,B/CA-0459,FRP EE4,"Boissevain Manitoba Hydro, FKEE5719",49.2254818,-100.0527512,DN99XF
CABOTA,1,B/CA-0460,FRP EE42,"Boissevain Customs Office, FKEE5801",48.9998414,-100.0518298,DN98XX
CABOTA,1,B/CA-0461,FRP FE1 and FE12,"FE1- Brandon RCMP Detachment, FE12 - Manitoba Civil Defence, FKFE0351",49.85,-99.95,EN09AU
CABOTA,1,B/CA-0462,FRP FE13,"Camp Shilo, FKFE2349",49.8166667,-99.6166667,EN09ET
CABOTA,1,B/CA-0463,FRP FE14,"Wawanesa  Post Office, FKFE2041",49.5941889,-99.6801409,EN09DO
CABOTA,1,B/CA-0464,FRP FE2,"Carberry RCMP Detachment, FKFE4052",49.8677041,-99.3601764,EN09HU
CABOTA,1,B/CA-0465,FRP FE3,"Ninette Post Office, FKFE2330",49.3994969,-99.630607,EN09EJ
CABOTA,1,B/CA-0466,FRP FE32,"Killarney RCMP Detachment, FKFE2211",49.181664,-99.664952,EN09EE
CABOTA,1,B/CA-0467,FRP FE33,"Lena County Customs Office, FKFE2101",48.9998874,-99.6594123,EN08EX
CABOTA,1,B/CA-0468,FRP FE4,"Cartwright County Customs Office, FKFE3901",49.0004193,-99.3465942,EN09HA
CABOTA,1,B/CA-0469,FRP GE1,"MacGregor CPR Station, FKGE1458",49.9648152,-98.7780247,EN09OX
CABOTA,1,B/CA-0470,FRP GE12,"Treherne RCMP Detachment, FKGE1938",49.6283891,-98.6985539,EN09PP
CABOTA,1,B/CA-0471,FRP GE2 and GE22,"Portage la Prairie, RCMP Detachment (GE2) and Provincial Civil Defence (GE22)",49.9833333,-98.3,EN09UX
CABOTA,1,B/CA-0472,FRP GE3,"Somerset Manitoba Hydro building, FKGE2125",49.412083,-98.6595705,EN09QJ
CABOTA,1,B/CA-0473,FRP GE33,"Crystal City RCMP Detachment, FKGE0309",49.1474594,-98.9495533,EN09MD
CABOTA,1,B/CA-0474,FRP GE34,"Crystal City County Customs Office, FKGE5931",49.0009009,-98.9388027,EN09MA
CABOTA,1,B/CA-0475,FRP GE32,"Manitou RCMP Detachment, FKGE2915",49.2404371,-98.5384986,EN09RF
CABOTA,1,B/CA-0476,FRP GE35,"Snowflake County Customs Office, FKGE2001",49.0008234,-98.6938996,EN09PA
CABOTA,1,B/CA-0477,FRP GE4,"Carman CBC Transmitter, FKGE5931",49.5085651,-98.0016988,EN09XM
CABOTA,1,B/CA-0478,FRP GE42,"Morden RCMP Detachment, FKGE5812",49.192329,-98.0977324,EN09WE
CABOTA,1,B/CA-0479,FRP GE43,"Windygates County Customs Office, FKGE4001",49.0012458,-98.3601305,EN09TA
CABOTA,1,B/CA-0480,FRP HE1,"Elie CNR Station, FKHE1454",49.9011548,-97.76022,EN19CV
CABOTA,1,B/CA-0481,FRP HE12,"Elm Creek Post Office, FKHE0140",49.675556,-97.9925,EN19AQ
CABOTA,1,B/CA-0482,FRP HE2,"Headingley RCMP Detachment, FKHE3553",49.8754945,-97.4087013,EN19HV
CABOTA,1,B/CA-0483,FRP HE22,"FOB Winnipeg, Army, FKHE4852",49.8537417,-97.210176,EN19JU
CABOTA,1,B/CA-0484,FRP HE24,"Birds Hill CNR Station, FKHE5959",49.9762973,-97.0282324,EN19LX
CABOTA,1,B/CA-0485,FRP HE25,"Ste Agathe CNR Station, FKHE4834",49.5717663,-97.1984324,EN19JN
CABOTA,1,B/CA-0486,FRP HE23,"Grande Pointe CPR Station, FKHE5847",49.7752039,-97.0490067,EN19LS
CABOTA,1,B/CA-0487,FRP HE3,"Roland Manitoba Hydro, FKHE0222",49.366067,-97.933769,EN19AI
CABOTA,1,B/CA-0488,FRP HE32,"Altona RCMP Detachment, FKHE2707",49.1034981,-97.5554948,EN19FC
CABOTA,1,B/CA-0489,FRP HE33,"Haskett County Customs Office, FKHE0101",49.001368,-97.9086685,EN19BA
CABOTA,1,B/CA-0490,FRP HE34,"Gretna County Customs Office, FKHE2701",49.0013753,-97.5568313,EN19FA
CABOTA,1,B/CA-0491,FRP HE4,"Morris RCMP Detachment, FKHE3822",49.3544829,-97.3646884,EN19HI
CABOTA,1,B/CA-0492,FRP HE42,"Letellier CNR Station, FKHE4208",49.135378,-97.303089,EN19ID
CABOTA,1,B/CA-0493,FRP HE43,"Emerson County Customs Office, FKHE4801",49.0011718,-97.2044004,EN19JA
CABOTA,1,B/CA-0494,FRP JE1,"Oakbank RCMP Detachment, FKJE0957",49.9391177,-96.8425801,EN19NW
CABOTA,1,B/CA-0495,FRP JE14,"Ste Anne CNR Station, FKJE2140",49.6731971,-96.6586843,EN19QQ
CABOTA,1,B/CA-0496,FRP JE12,"Steinbach RCMP Detachment, FKJE1932",49.5285279,-96.691092,EN19PM
CABOTA,1,B/CA-0497,FRP JE2,"Vivian CNR Station, FKJE3253",49.8811847,-96.4572839,EN19SV
CABOTA,1,B/CA-0498,FRP JE22,"Mr Richer, Man Ren Res, FKJE3838",49.6333333,-96.3666667,EN19TP
CABOTA,1,B/CA-0499,FRP JE3,"St Pierre RCMP Detachment, FKJE0227",49.4407727,-96.9845195,EN19MK
CABOTA,1,B/CA-0500,FRP JE32,"Vita Manitoba Hydro, FKJE2708",49.1342446,-96.5622361,EN19RD
CABOTA,1,B/CA-0501,FRP JE33,"Tolstoi County Customs Office, FKJE0901",49.0006399,-96.8024945,EN19OA
CABOTA,1,B/CA-0502,FRP JE4,"Marchand Manitoba Forests, FKJE4628",49.4330234,-96.2746237,EN19UK
CABOTA,1,B/CA-0503,FRP JE42,"Woodridge Manitoba Forests, FKJE5217",49.2899016,-96.1484718,EN19WG
CABOTA,1,B/CA-0504,FRP KE1,"Whitemouth RCMP Detachment, FKKE0258",49.954167,-95.975278,EN29AW
CABOTA,1,B/CA-0505,FRP KE12,"Rennie Manitoba Forests, FKKE2751",49.85,-95.55,EN29FU
CABOTA,1,B/CA-0506,FRP KE13,"Hadashville Man Ren Res, FKKE0540",49.676667,-95.9075,EN29BQ
CABOTA,1,B/CA-0507,FRP KE14,"Elma CNR Station, FKKE0653",49.8741552,-95.9099872,EN29BU
CABOTA,1,B/CA-0508,FRP KE2,"Falcon Lake Manitoba Forests, FKKE4141",49.684889,-95.328757,EN29IQ
CABOTA,1,B/CA-0509,FRP KE3x,"Whitemouth Lake Man Ren Res, FKKE1818",49.2800231,-95.7014681,EN29DG
CABOTA,1,B/CA-0510,FRP KE33,"Piney County Customs Office, FKKE0101",49.0005615,-95.9783428,EN29AA
CABOTA,1,B/CA-0511,FRP KE33,"Sprague RCMP Detachment, FKKE2101",49.035457,-95.642988,EN29EA
CABOTA,1,B/CA-0512,FRP KE35,"South Junction County, Customs Office, FKKE1501",49.0067574,-95.7664968,EN29CA
CABOTA,1,B/CA-0513,FRP KE36,"Piney Man Ren Res, FKKE0104",49.0747724,-95.978913,EN29AB
CABOTA,1,B/CA-0514,FRP KE4,"Moose Lake Man Ren Res, FKKE3712   http://www.mhs.mb.ca/docs/sites/falloutpostke4.shtml",49.2036312,-95.3491105,EN29HE
CABOTA,1,B/CA-0515,FRP KE42,"Middlebro County Customs Office, FKKE3601",49.019135,-95.441014,EN29GA
CABOTA,1,B/CA-0516,FRP DF2,"Russell RCMP Detachment, FKDF4547",50.7803696,-101.2849376,DO90IS
CABOTA,1,B/CA-0517,FRP DF4,"Birtle Manitoba Hydro, FKDF5827",50.4221254,-101.0449519,DO90LK
CABOTA,1,B/CA-0518,FRP DF42,"McCauly Post Office, FKDF3616",50.2624073,-101.388408,DO90HG
CABOTA,1,B/CA-0519,FRP DF43,"Kirkella CPR Station, FKDF3802",50.0247384,-101.3667172,DO90HA
CABOTA,1,B/CA-0520,FRP EF1,"Rossburn RCMP Detachment, FKDF3802",50.6683442,-100.8108714,DO90OQ
CABOTA,1,B/CA-0521,FRP EF12,"Sugarloaf National Park, FKEF1758",50.9666667,-100.7166667,DO90PX
CABOTA,1,B/CA-0522,FRP EF2,"Elphinstone RCMP Detachment, FKEF4032",50.5313244,-100.3220386,DO90UM
CABOTA,1,B/CA-0523,FRP EF22,"Herring Creek National Parks, FKEF3843",50.7166667,-100.3666667,DO90TR
CABOTA,1,B/CA-0524,FRP EF3,"Hamiota RCMP Detachment, FKEF2511",50.1798712,-100.5998347,DO90QE
CABOTA,1,B/CA-0525,FRP EF32,"Shoal Lake RCMP Detachment, FKEF2626",50.4380866,-100.5907301,DO90QK
CABOTA,1,B/CA-0526,FRP EF4,"Newdale Manitoba Hydro, FKEF4602",50.351669,-100.203663,DO90VI
CABOTA,1,B/CA-0527,FRP EF42,"Camp Rivers, Canadian Army, FKEF 2602",50.01055556,-100.3136111,DO90UA
CABOTA,1,B/CA-0528,FRP FF1,"Wasagaming RCMP Detachment, FKFF0239",50.6578364,-99.963618,EO00AP
CABOTA,1,B/CA-0529,FRP FF12,"Ochre River National Parks, FKFF1057",51.062222,-99.78,EO01CB
CABOTA,1,B/CA-0530,FRP FF13,"Wasagaming National Parks, EKFF0239",50.65,-99.9666667,EO00AP
CABOTA,1,B/CA-0531,FRP FF2,"McCreary RCMP Detachment, FKFF3147",50.7746151,-99.4937344,EO00GS
CABOTA,1,B/CA-0532,FRP FF22,"Glenella CNR Station, FKFF4833",50.556451,-99.1953262,EO00JN
CABOTA,1,B/CA-0533,FRP FF3,"Minnedosa RCMP Detachment, FKFF1016",50.2470383,-99.838649,EO00BF
CABOTA,1,B/CA-0534,FRP FF32,"Brookdale Post Office, FKFF2505",50.0472009,-99.5682279,EO00FB
CABOTA,1,B/CA-0535,FRP FF4,"Plumas CNR Station, FKFF5523",50.3845214,-99.0895378,EO00KJ
CABOTA,1,B/CA-0536,FRP GF1,"Alonsa Post Office, FKGF0148",50.801177,-98.977607,EO00MT
CABOTA,1,B/CA-0537,FRP GF12,"Amaranth RCMP Detachment, FKGF1635",50.595363,-98.739369,EO00PO
CABOTA,1,B/CA-0538,FRP GF2,"Eriksdale Manitoba Game, FKGF5452",50.8602809,-98.1061635,EO00WU
CABOTA,1,B/CA-0539,FRP GF22,"Lundar RCMP Detachment, FKGF5841",50.6980019,-98.0414312,EO00XQ
CABOTA,1,B/CA-0540,FRP GF23,"Oak Point National Resources, FKGF5830",50.5059479,-98.028268,EO00XM
CABOTA,1,B/CA-0541,FRP GF24,"Overton Post Office, FKGF3158",50.9482178,-98.4904475,EO00SW
CABOTA,1,B/CA-0542,FRP GF3,"Gladstone RCMP Detachment, FKGF0313",50.224998,-98.950765,EO00MF
CABOTA,1,B/CA-0543,FRP GF4,"Clandeboye Man Ren Res, FKGF4614",50.242466,-96.974947,EO10MF
CABOTA,1,B/CA-0544,FRP HF2,"Arborg RCMP Detachment, FKHF4755",50.9061035,-97.2181713,EO10JV
CABOTA,1,B/CA-0545,FRP HF3,"Woodlands Post Office, FKHF2018",50.206878,-97.6602319,EO10EE
CABOTA,1,B/CA-0546,FRP HF4,"Teulon RCMP Detachment, FKHF4423",50.3868727,-97.2606903,EO10IJ
CABOTA,1,B/CA-0547,FRP HF42,"Stonewall RCMP Detachment, FKHF4009",50.1351544,-97.3273965,EO10ID
CABOTA,1,B/CA-0548,FRP JF1,"Gimli RCMP Detachment, FKJF0138",50.6320809,-96.9886746,EO10MP
CABOTA,1,B/CA-0549,FRP JF12,"Victoria Beach Post Office, FKJF2743",50.7050706,-96.5631321,EO10RQ
CABOTA,1,B/CA-0550,FRP JF13,"Winnipeg Beach RCMP Detachment, FKJF0232",50.5067073,-96.9753962,EO10MM
CABOTA,1,B/CA-0551,FRP JF2,"Pine Falls Man Ren Res, FKJF4635",50.5678306,-96.2264278,EO10VN
CABOTA,1,B/CA-0552,FRP JF3,"Libau Manitoba Game, FKJF1717",50.269136,-96.719609,EO10PG
CABOTA,1,B/CA-0553,FRP JF32,"Selkirk RCMP  Detachment, FKJF0709",50.1435276,-96.8754295,EO10ND
CABOTA,1,B/CA-0554,FRP JF33,"Beausejour RCMP Detachment, FKJF3004",50.0617283,-96.5158517,EO10RB
CABOTA,1,B/CA-0555,FRP JF34,"Selkirk Manitoba Renewable Resources (Generating Station), FKJF0709",50.13416667,-96.85138889,EO10ND
CABOTA,1,B/CA-0556,FRP JF4,"Stead Manitoba Forests, FKJF3326",50.4296,-96.445496,EO10SK
CABOTA,1,B/CA-0557,FRP JF42,"Great Falls Manitoba Hydro, FKJF5928",50.4615145,-96.0097242,EO10XL
CABOTA,1,B/CA-0558,FRP JF43,"Lac du Bonnet RCMP Detachment, FKJF5716",50.259444,-96.061558,EO10XG
CABOTA,1,B/CA-0559,FRP JF44,"Seven Sisters Manitoba Hydro, FKJF5928",50.1203543,-96.0180249,EO10XC
CABOTA,1,B/CA-0560,FRP KF3,Pointe du Bois Manitoba Hydro? FKKF2518,50.300833,-95.551389,EO20FH
CABOTA,1,B/CA-0561,FRP KF32,"Nutimik Lake Manitoba Ren Res, FKKF1708",50.1426677,-95.6892132,EO20DD
CABOTA,1,B/CA-0562,FRP KF4,"Oiseau Manitoba Forests, FKKF3528",50.4597084,-95.411431,EO20HL
CABOTA,1,B/CA-0563,FRP KF42,"Whiteshell Lake Manitoba Forests, FKKF3505",50.0820801,-95.3737169,EO20HB
CABOTA,1,B/CA-0564,FRP DG2,"Benito Manitoba Forests, FKDG2855",51.9130739,-101.5475812,DO91FV
CABOTA,1,B/CA-0565,FRP DG22,"Boggy Creek Manitoba Forests, FKDG3832",51.5362604,-101.3532247,DO91HM
CABOTA,1,B/CA-0566,FRP DG23x,"Sarah Mountain Manitoba Ren Res, FKDG4251",51.85,-101.3,DO91IU
CABOTA,1,B/CA-0567,FRP DG24x,"Shell River Man Ren Res, FKDG4639",51.65,-101.2333333,DO91JP
CABOTA,1,B/CA-0568,FRP DG4,"Roblin RCMP Detachment, FKDG3914",51.2281843,-101.3523249,DO91HF
CABOTA,1,B/CA-0569,FRP DG42,"Dropmore Post Office, FKDG3401",51.017396,-101.445147,DO91GA
CABOTA,1,B/CA-0570,FRP DG43x,"Merridale Man Ren Res, FKDG5228",51.4666667,-101.1333333,DO91KL
CABOTA,1,B/CA-0571,FRP EG1,"Pine River Man Nat Res, FKEG2847",51.7833333,-100.5333333,DO91RS
CABOTA,1,B/CA-0572,FRP EG12x,"Wellman Lake Man Ren Res, FKEG0250",51.8108089,-100.8979635,DO91NT
CABOTA,1,B/CA-0573,FRP EG2,"Garland Manitoba Forests, FKEG3338",51.652903,-100.458632,DO91SP
CABOTA,1,B/CA-0574,FRP EG22,"Ethelbert RCMP Detachment, FKEG3732",51.525757,-100.393198,DO91TM
CABOTA,1,B/CA-0575,FRP EG23,"Fork River CNR Station, FKEG5923",51.5123592,-100.0220282,DO91XM
CABOTA,1,B/CA-0576,FRP EG3,"Grandview Manitoba Forests, FKEG1911",51.1736812,-100.6956524,DO91PE
CABOTA,1,B/CA-0577,FRP EG32x,"Baldy Mountain Man Ren Res, FKEG1519",51.3166667,-100.75,DO91PH
CABOTA,1,B/CA-0578,FRP EG4,"Sifton CNR Station, FKEG5222",51.3613052,-100.1445767,DO91WI
CABOTA,1,B/CA-0579,FRP EG42 and 43,"Dauphin RCMP and Man Ren Res, FKEG5809",51.1500374,-100.0497004,DO91XD
CABOTA,1,B/CA-0580,FRP FG1,"Winnipegosis RMCP Detachment, FKFG0539",51.6499367,-99.9265578,EO01AP
CABOTA,1,B/CA-0581,FRP FG3,"Rorketon Post Office, FKFG2523",51.390268,-99.590265,EO01EJ
CABOTA,1,B/CA-0582,FRP FG32,"Saint Rose-du-Lac  RCMP Detachment, FKFG2904",51.0608758,-99.5242198,EO01FB
CABOTA,1,B/CA-0583,FRP FG4,"Magnet Post Office, FKFG3119",51.3179574,-99.5003931,EO01FH
CABOTA,1,B/CA-0584,FRP GG1,"Gypsumville Manitoba Natural Resources, FKGG2347",51.76932,-98.6393929,EO01QS
CABOTA,1,B/CA-0585,FRP GG12,"Fairford Post Office, FKGG1935",51.608578,-98.649865,EO01QO
CABOTA,1,B/CA-0586,FRP GG2,"Dauphin River Manitoba Fisheries, FKGG5758",51.9630647,-98.0637973,EO01XX
CABOTA,1,B/CA-0587,FRP GG3,"Grahamdale Post Office, FKGG3024",51.3911445,-98.5001717,EO01RJ
CABOTA,1,B/CA-0588,FRP GG4,"Ashern RCMP Detachment, FKGG4010",51.1808493,-98.350341,EO01TE
CABOTA,1,B/CA-0589,FRP HG1x,"St. David Manitoba Forests, FKHG3134",51.5666667,-97.4833333,EO11GN
CABOTA,1,B/CA-0590,FRP HG2,"Lake Saint George Man Ren Res, FKHG3545",51.7202992,-97.4056419,EO11HR
CABOTA,1,B/CA-0591,FRP HG3,"Hodgson Man Ren Res, FKHG2613",51.2151139,-97.5712542,EO11FF
CABOTA,1,B/CA-0592,FRP HG4,"Riveron Manitoba Forests, FKHG3802",50.9961332,-96.9997559,EO10MX
CABOTA,1,B/CA-0593,FRP JG1x,"Bloodvein River Manitoba Natural Resources, FKJG1847",51.7833333,-96.7,EO11PS
CABOTA,1,B/CA-0594,FRP JG3x,"Beaver Creek Man Ren Res, FKJG0524 For more information please see http://www.mhs.mb.ca/docs/sites/falloutpostjg3.shtml",51.376111,-96.915278,EO11NJ
CABOTA,1,B/CA-0595,FRP JG4x,"Hole River Manitoba Forests, FKJG4110",51.1666667,-96.3166667,EO11UE
CABOTA,1,B/CA-0596,FRP KG3,"Bissett RCMP Detachment, FKKG2002",51.025965,-95.684089,EO21DA
CABOTA,1,B/CA-0597,FRP KG1,"Sasaginuigak Man Ren Res, FKKG2242",51.7,-95.6333333,EO21EQ
CABOTA,1,B/CA-0598,FRP DH2,"Barrows Manitoba Natural Resources, FKDH3450",52.83072,-101.441445,DO92GT
CABOTA,1,B/CA-0599,FRP DH22,"Mafeking Manitoba Forests, FKDH5441",52.683956,-101.110293,DO92KQ
CABOTA,1,B/CA-0600,FRP DH23x,"Steep Rock Lake, Man Ren Res, FKDH2035",52.5833333,-101.6666667,DO92DN
CABOTA,1,B/CA-0601,FRP DH24x,"Hart Mountain, Manitoba Forests, FKDH2528",52.4666667,-101.5833333,DO92FL
CABOTA,1,B/CA-0602,FRP DH4,"Birtch River, Manitoba Forests, FKDH5424",52.396111,-101.103889,DO92KJ
CABOTA,1,B/CA-0603,FRP DH42,"Bowsman CNR Station, FKDH4814",52.2371165,-101.2085115,DO92JF
CABOTA,1,B/CA-0604,FRP DH43,"Swan River RCMP Detachment, FKDH4406",52.1050923,-101.2706212,DO92IC
CABOTA,1,B/CA-0605,FRP DH44,"Minitonas Manitoba Forests, FKDH5805",52.0861636,-101.0373605,DO92LC
CABOTA,1,B/CA-0606,FRP EH3,"Cowan Post Office, FKEH2202",52.033829,-100.648014,DO92QA
CABOTA,1,B/CA-0607,FRP EH4,"Duck Bay Post Office, FKEH5110",52.175721,-100.149615,DO92WE
CABOTA,1,B/CA-0608,FRP GH3,"Devil's Lake, Man Ren Res, FKGH0425 For more please see http://www.mhs.mb.ca/docs/sites/falloutpostgh3.shtml",52.4012741,-98.9104123,EO02NJ
CABOTA,1,B/CA-0609,FRP HH2,"Poplar River Manitoba Natural Resources, FKHH4059",52.99621,-97.273374,EO12IX
CABOTA,1,B/CA-0610,FRP HH4,"Berens River RCMP Detachment, FKHH5822",52.353035,-97.002605,EO12LI
CABOTA,1,B/CA-0611,FRP KH4,"Little Grand Rapids, Hudson's Bay Company, FKKH3302",52.008541,-95.429739,EO22GA
CABOTA,1,B/CA-0612,FRP DJ2,"The Pas, Manitoba Natural Resources, FKDJ4549",53.8255265,-101.2476129,DO93JT
CABOTA,1,B/CA-0613,FRP DJ4,"Overflow Man Ren Res, FKDJ1050",53.8333333,-101.8333333,DO93CT
CABOTA,1,B/CA-0614,FRP DJ22,"Westray CNR Station, FKDJ3536",53.5952316,-101.4062782,DO93HO
CABOTA,1,B/CA-0615,FRP DJ23,"Prospector Man Ren Res, FKDJ4058",53.9673553,-101.281313,DO93IX
CABOTA,1,B/CA-0616,FRP DJ42,"Mile 73 Man Ren Res,  FKDJ3529",53.4694586,-101.3524872,DO93HL
CABOTA,1,B/CA-0617,FRP EJ2,"Moose Lake Tower, Manitoba Mines and Natural Resources, FKEJ4043",53.7069761,-100.3406165,DO93TQ
CABOTA,1,B/CA-0618,FRP EJ22,"Moose Lake Man Ren Res, FKEJ5750",53.8333333,-100.05,DO93XT
CABOTA,1,B/CA-0619,FRP EJ4,"Cedar Lake Manitoba Mines and Natural Resources, FKEJ3618",53.2990564,-100.419855,DO93SH
CABOTA,1,B/CA-0620,FRP EJ23,"Crossing Bay Man Ren Res, FKEJ3352",53.8666667,-100.45,DO93SU
CABOTA,1,B/CA-0621,FRP FJ4,"Grand Rapids, Manitoba Mines and Natural Resources, FKFJ4510",53.1841527,-99.2678509,EO03IE
CABOTA,1,B/CA-0622,FRP HJ1,"Norway House Manitoba Mines and Natural Resources, FKHJ1058",53.982065,-97.832932,EO13CX
CABOTA,1,B/CA-0623,FRP KJ1x,"Stevenson Lake, Manitoba Forests, FKKJ0556",53.9333333,-95.9166667,EO23AW
CABOTA,1,B/CA-0624,FRP LJ1,"Island Lake Manitoba Mines and Natural Resources, FKLJ2153",53.864797,-94.667576,EO23PU
CABOTA,1,B/CA-0625,FRP DK4,"Wanless Post Office, FKDK3810",54.182075,-101.360301,DO94HE
CABOTA,1,B/CA-0626,FRP MK4,"Red Sucker Lake Hudson's Bay Company, FKMK2805",54.16,-93.567222,EO34FD
CABOTA,1,B/CA-0627,FRP DK1,"Flin Flon CNR Station, FKDK0747",54.7705962,-101.8400092,DO94BS
CABOTA,1,B/CA-0628,FRP DK2,"RCAF Station Cranberry Portage Sector Control Station, FKDK3735",54.58547,-101.37139,DO94HO
CABOTA,1,B/CA-0629,FRP FK3,"Wekusko CNR Station, FKFK0930",54.5032989,-99.7527664,EO04CM
CABOTA,1,B/CA-0630,FRP EK4x,"Dyce Man Ren Res, FKEK4822",54.367963,-100.160805,DO94WI
CABOTA,1,B/CA-0631,FRP EK3,"Cormorant Man Ren Res, FKEK2214",54.224611,-100.601709,DO94QF
CABOTA,1,B/CA-0632,FRP EK2,"Snow Lake Manitoba Forests, FKEK5853",54.8785668,-100.0220321,DO94XV
CABOTA,1,B/CA-0633,FRP EK1x,"Louks lake Tower Man Ren Res, FKEK1042",54.7,-100.8333333,DO94OQ
CABOTA,1,B/CA-0634,FRP FK1,"Wabowden Department of Transport, FKGK2153",54.909392,-98.629417,EO04QV
CABOTA,1,B/CA-0635,FRP HK1,"Cross Lake Hudson's Bay Company, FKHK0638",54.625632,-97.7796369,EO14CP
CABOTA,1,B/CA-0636,FRP KK2,"Oxford House Federal Nursing Station, FKKK4358",54.949983,-95.265749,EO24IW
CABOTA,1,B/CA-0637,FRP IK1,"Gods Lake Narrows Hudson's Bay Company, FKIK2933",54.553608,-94.494085,EO24SN
CABOTA,1,B/CA-0638,FRP DL2,"Pukatawagan Manitoba Forests, FKDL4146",55.74204,-101.3168759,DO95IR
CABOTA,1,B/CA-0639,FRP DL4,"Sherridon CNR Station, FKDL5507",55.1219247,-101.0922811,DO95KC
CABOTA,1,B/CA-0640,FRP GL1,"Nelson House Hudson's Bay Company, FKGL0949",55.7839842,-98.8867528,EO05NS
CABOTA,1,B/CA-0641,FRP HL1,"Thompson CNR Station, FKHL0746",55.7406175,-97.8309925,EO15CR
CABOTA,1,B/CA-0642,FRP HL3,"Thicket Portage CNR Station, FKHL2020",55.3190683,-97.6880598,EO15DH
CABOTA,1,B/CA-0643,FRP JL1,"Arnot CNR Station, FKJL2045",55.7663954,-96.6880488,EO15PS
CABOTA,1,B/CA-0644,FRP PL1,"Shamattawa Hudson's Bay Company, FKPL0155",55.86172,-92.098404,EO35WU
CABOTA,1,B/CA-0645,FRP DM2,"Lynn Lake Department of Transport, FKDM5752",56.850343,-101.0538071,DO96LU
CABOTA,1,B/CA-0646,FRP GM1,"South Indian Lake Manitoba Natural Resources, FKGM0348",56.780849,-98.9288857,EO06MS
CABOTA,1,B/CA-0647,FRP JM4,"Split Lake Hudson's Bay Company, FKJM5211",56.245139,-96.095057,EO16WF
CABOTA,1,B/CA-0648,FRP KM3,Ifllord Man Ren Res? FKKM2005,56.0833333,-95.6666667,EO26DB
CABOTA,1,B/CA-0649,FRP LM2,"RCAF Station Bird, FKLM4630",56.50583333,-94.21388889,EO26VM
CABOTA,1,B/CA-0650,FRP LM3,"Gillam Department of Transport, FKLM1622",56.3573286,-94.7061812,EO26PI
CABOTA,1,B/CA-0651,FRP DN1,"Brochet Department of Transport, FKDN2853",57.8894695,-101.6791106,DO97DV
CABOTA,1,B/CA-0652,FRP LN4,"Herchmer CNR Station, FKLN4636",57.371135,-94.1870125,EO27VI
CABOTA,1,B/CA-0653,FRP LP2,"Fort Churchill, Canadian Army, FKLP4947",58.7759307,-94.1844491,EO28VS
CABOTA,1,B/CA-0654,Shilo BRIDGE,,49.8004503,-99.6279577,EN09ET
CABOTA,1,B/CA-0655,FRP GE44,"Miami Rail Station, Outside Shelter",49.3698716,-98.2445534,EN09VI
CABOTA,1,B/CA-0656,FRP DE2,Elkhorn,49.9753646,-101.2408403,DN99JX
CABOTA,1,B/CA-0657,FRP FE22,Glenboro Rail station?,49.554494,-99.28833,EN09IN
CABOTA,1,B/CA-0658,FRP FE3,Belmont,49.409886,-99.456436,EN09GJ
CABOTA,1,B/CA-0659,FRP KF32,"Slave Falls, possibly Manitoba Hydro?",50.2222188,-95.5688218,EO20FF
CABOTA,1,B/CA-0660,FRP KF4,Bernic Lake,50.429613,-95.450888,EO20GK
CABOTA,1,B/CA-0661,FRP DG43,Deepdale,51.307858,-101.417399,DO91GH
CABOTA,1,B/CA-0662,FRP HG1,Red Rose,51.464142,-97.5331711,EO11FL
CABOTA,1,B/CA-0663,FRP FLEB3,Ennadai Lake,60.8842854,-101.1994594,DP90JV
CABOTA,1,B/CA-0664,FRP FLLB4,Arviat (Eskimo Point ca 1961),61.10765,-94.0625094,EP21XC
CABOTA,1,B/CA-0665,FRP FLNC2,Rankin Inlet,62.808375,-92.0852853,EP32WT
CABOTA,1,B/CA-0666,FLQD3,Chesterfield Inlet,63.346514,-90.736827,EP43PI
CABOTA,1,B/CA-0667,FRP FLKE3,Baker Lake,64.317604,-96.022001,EP14XH
CABOTA,1,B/CA-0668,FRP FLKJ3,Gjoa Haven,68.6355559,-95.8497219,EP28BP
CABOTA,1,B/CA-0669,FRP GLGE4,Coral Harbour,64.138834,-83.169897,EP84JD
CABOTA,1,B/CA-0670,Nudet Post GC31,"Whitbourne RCMP Detachment, Basement shelter planned, JKGC2825",47.41835393,-53.5327427,GN37FK
CABOTA,1,B/CA-0671,Nudet Post GC21,"Harbour Grace RCMP Detachment, JKGC4541, Basement shelter planned, JKGC4541",47.69511393,-53.2116386,GN37JQ
CABOTA,1,B/CA-0672,Nudet Post HD31,"Baccalieu Island Lighthouse, Aboveground shelter planned, JKHD1309",48.14985173,-52.7981979,GN38OD
CABOTA,1,B/CA-0673,FRP BD41,"Stephenville Crossing RCMP Detachment, shelter not built, JKBD4041",48.52800043,-58.4467644,GN08SM
CABOTA,1,B/CA-0674,FRP AC23,"Channel RCMP Detachment, No shelter constructed, JKAC5324",47.57211493,-59.136429,GN07KN
CABOTA,1,B/CA-0675,FRP AC23,"Port-Aux-Basques CNR Station, Aboveground shelter planned, JKAC5135",47.59093773,-59.1637338,GN07KO
CABOTA,1,B/CA-0676,FRP BE41,"Devils Head, Department of Transport, outside shelter planned, JKBE307",49.12774773,-58.3738501,GN09TD
CABOTA,1,B/CA-0677,FRP BD21,"Spruce Brook CNR Station, aboveground shelter planned, JKBD5044",48.75541173,-58.1759669,GN08VS
CABOTA,1,B/CA-0678,FRP BD12,"Stephenville RCMP Detachment, JKBD2633",48.54797183,-58.5815353,GN08RN
CABOTA,1,B/CA-0679,FRP BD31,"Saint Fintan's CNR Station, Aboveground shelter planned, JKBD1010",48.18269493,-58.8429661,GN08NE
CABOTA,1,B/CA-0680,FRP BC11,"Rose Blanche Lighthouse, DOT, Outside shelter planned, JKBC1536",47.60185603,-58.6945519,GN07PO
CABOTA,1,B/CA-0681,FRP CE41,"Deer Lake RCMP Detachment, Basement shelter planned, JKCE3411",49.17316823,-57.4338728,GN19GE
CABOTA,1,B/CA-0682,FRP CD12,"Corner Brook Post Office, basement shelter planned, JKCD0357",48.94899673,-57.9502726,GN18AW
CABOTA,1,B/CA-0683,FRP CD12,"Gallipoli Armoury, Corner Brook, Aboveground shelter planned, JKCD0357",48.94600583,-57.9331162,GN18AW
CABOTA,1,B/CA-0684,FRP CC11,"Burgeo RCMP Detachment, Basement shelter planned, JKCC2237",47.61341303,-57.610491,GN17EO
CABOTA,1,B/CA-0685,FRP DD11,"Buchans Canadian National Telegraph, Aboveground shelter planned, JKDD0850",48.82619223,-56.8596138,GN18NT
CABOTA,1,B/CA-0686,FRP DC11,"Francois Canadian National Telegraph, Aboveground shelter planned, JKDC1434",47.57991453,-56.7463607,GN17PN
CABOTA,1,B/CA-0687,FRP ED13,"Two shelters, one completed, Grand Falls Canadian Telegraph and Grand Falls DNT building, JKED2062",48.92766873,-55.6575025,GN28EW
CABOTA,1,B/CA-0688,FRP ED13,"Bishop's Falls CNR Station, Aboveground shelter planned, JKED5868",49.01028113,-55.4956021,GN29GA
CABOTA,1,B/CA-0689,FRP FD12,"RCAF Gander, Basement shelter planned, JKFD2557",48.94443263,-54.5813567,GN28RW
CABOTA,1,B/CA-0690,FRP FD12,"Gander RCMP Detachment, Basement shelter planned, JKFD2557",48.96188493,-54.6170076,GN28QX
CABOTA,1,B/CA-0691,FRP FD21,"Glovertown RCMP Detachment, Basement shelter, JKFD5839",48.67436573,-54.0357648,GN28XQ
CABOTA,1,B/CA-0692,FRP FD41,"Port Blandford Department of Transport building, outside shelter planned, JKFD5021",48.35872833,-54.1657978,GN28WI
CABOTA,1,B/CA-0693,FRP GD31,"Clarenville RCMP Detachment, Basement shelter planned, JKGD0110",48.16822503,-53.9645533,GN38AE
CABOTA,1,B/CA-0694,FRP GC34,"Placentia Canadian National Telegraph, Outside shelter planned, JKGC0215",47.24757693,-53.9612629,GN37AF
CABOTA,1,B/CA-0695,FRP GC34,"Placentia RCMP Detachment, Basement shelter planned, JKGC0215",47.24436863,-53.9631887,GN37AF
CABOTA,1,B/CA-0696,FRP HC15,"Cape St. Francis Lighthouse, DOT, Ouside shelter planned, JKHC1249",47.80869903,-52.7867233,GN37OT
CABOTA,1,B/CA-0697,FRP HC15,"Bell Island RCMP Detachment, Basement shelter planned, JKHC0339",47.63079033,-52.9415844,GN37MP
CABOTA,1,B/CA-0698,FRP AC23,"Saint Andrew's CNR Station, Aboveground shelter planned, JKAC4547",47.77585973,-59.2708108,GN07IS
CABOTA,1,B/CA-0699,FRP DC41,"Pass Island CNT Building, Aboveground shelter planned, JKDC0305",47.48456293,-56.1964928,GN17VL
CABOTA,1,B/CA-0700,FRP HC15,"RCAF Torbay Basement Shelter, JKHC1638",47.61977873,-52.7346511,GN37PO
CABOTA,1,B/CA-0701,FRP HC15,"Torbay Department of Transport (Air), Inside shelter completed, JKHC1638",47.62309083,-52.7617522,GN37OO
CABOTA,1,B/CA-0702,FRP DD12,"Millertown Junction CNR Station, JKDD2949",49.00794823,-56.338564,GN19TA
CABOTA,1,B/CA-0703,FRP DE32,"Gaff Topsail CNR Station, Aboveground shelter, JKDE2609",49.14288433,-56.6520763,GN19QD
CABOTA,1,B/CA-0704,FRP GC34,"Colinet Post Office, basement shelter, JKGC2613",47.21922373,-53.5521429,GN37FF
CABOTA,1,B/CA-0705,FRP EC33,"Harbour Breton Canadian National Telegraph, Outside shelter planned, JKEC1028",47.47873193,-55.8062941,GN27CL
CABOTA,1,B/CA-0706,FRP GB12,"Saint Mary's Canadian National Telegraph, Aboveground shelter planned, JKGB2555",46.91307193,-53.5761511,GN36FV
CABOTA,1,B/CA-0707,FRP BD12,"Lourdes Post Office, Aboveground shelter planned, JKBD0139",48.64773883,-58.9970223,GN08MP
CABOTA,1,B/CA-0708,FRP HC32,"Ferryland RCMP Detachment, Basement shelter planned, JKHC0602",47.02199983,-52.8890043,GN37NA
CABOTA,1,B/CA-0709,FRP GB22,"Cape Race Lighthouse, Outside shelter planned, JKGB5539",46.65853433,-53.0736014,GN36LP
CABOTA,1,B/CA-0710,FRP GB22,"Trespassey Post Office, Aboveground shelter planned, JKGB3845",46.73611603,-53.360278,GN36HR
CABOTA,1,B/CA-0711,FRP GB12,"Peter's River Post Office, Plan for aboveground shelter,. JKGB2445",46.76318093,-53.6074302,GN36ES
CABOTA,1,B/CA-0712,FRP FB21,Saint Bride's Canadian National Telegraph Building,46.91995303,-54.1722681,GN26VW
CABOTA,1,B/CA-0713,FRP GD11,"Trinity Canadian National Telegraph , Outside shelter planned, JKGD0957",48.36774413,-53.358736,GN38HI
CABOTA,1,B/CA-0714,FRP GD21,"Bonavista RCMP Detachment, Basement shelter planned, JKGD5439",48.65334493,-53.1118249,GN38KP
CABOTA,1,B/CA-0715,FRP DE41,"Springdale RCMP Detachment, Basement shelter planned, JKDE5430",49.49749003,-56.0729969,GN19XL
CABOTA,1,B/CA-0716,FRP EC32,"Grand Bank RCMP Detachment, Basement shelter planned, JKEC1306",47.09393013,-55.6390227,GN27EC
CABOTA,1,B/CA-0717,FRP EC32,"Grand Bank Canadian National Telegraph, Basement shelter planned, JKEC1306",47.10150943,-55.7512831,GN27CC
CABOTA,1,B/CA-0718,FRP EB22,"Saint Lawrence RCMP Detachment, Basement shelter planned, JKEB3954",46.92516703,-55.395229,GN26HW
CABOTA,1,B/CA-0719,FRP EB22,"Burin RCMP Detachment, Basement shelter planned, JKEB5059",47.05316733,-55.1740736,GN27JB
CABOTA,1,B/CA-0720,FRP GC11,"Goobies CNR Station, Basement shelter planned, JKGC0256",47.93767913,-53.9611116,GN37AW
CABOTA,1,B/CA-0721,FRP EE41,"Lewisporte RCMP Detachment, basement shelter planned, JKEE5515",49.24503843,-55.0591548,GN29LF
CABOTA,1,B/CA-0722,FRP EB11,"Lamaline Canadian National Telegraph, Aboveground shelter planned, JKEB1253",46.86895303,-55.803282,GN26CU
CABOTA,1,B/CA-0723,FRP EC41,"Belleoram Canadian National Telegraph, Outside shelter planned, JKEC3731",47.52674973,-55.4149733,GN27HM
CABOTA,1,B/CA-0724,FRP GE33,"Musgrave Harbour Canadian National Telegraph, Outside shelter planned, JKGE4137",49.45189303,-53.9595403,GN39AK
CABOTA,1,B/CA-0725,FRP FE21,"Fogo Canadian National Telegraph, Basement shelter planned, JKFE4342",49.71334383,-54.2751604,GN29UR
CABOTA,1,B/CA-0726,FRP FE11,"Twillingate RCMP Detachment, Basement shelter planned, JKFE1539",49.64869483,-54.7622673,GN29OP
CABOTA,1,B/CA-0727,FRP DE32,"Hampden Canadian National Telegraph, Outside shelter planned, JKDE0832",49.54277003,-56.856644,GN19NN
CABOTA,1,B/CA-0728,FRP CE31,"Woody Point RCMP Detachment, Basement shelter planned, JKCE0730",49.50272903,-57.916273,GN19BM
CABOTA,1,B/CA-0729,FRP FE41,"Carmanville Canadian National Telegraph, outside shelter planned, JKFE4322",49.40331593,-54.2867228,GN29UJ
CABOTA,1,B/CA-0730,FRP GE33,"Wesleyville Canadian National Telegraph, Aboveground shelter planned, JKGE2508",49.14943203,-53.5513441,GN39FD
CABOTA,1,B/CA-0731,FRP GC41,"Holyrood CNR Station, Aboveground shelter planned, JKGC5223",47.38567403,-53.1284738,GN37KJ
CABOTA,1,B/CA-0732,FRP HC31,"Witless Bay Post Office, Aboveground shelter planned, JKHC0917",47.28266763,-52.8325042,GN37OG
CABOTA,1,B/CA-0733,FRP GE33,"Lumsden Canadian National Telegraph, Outside shelter planned, JKGE2217",49.29494203,-53.598962,GN39EH
CABOTA,1,B/CA-0734,FRP HC15,"Cape Spear Lighthouse, Inside shelter planned, JKHC2231",47.51994003,-52.6235903,GN37QM
CABOTA,1,B/CA-0735,FRP GC23,"Heart's Content Western Union, Basement shelter planned, JKGC4151",47.86995903,-53.3631423,GN37HU
CABOTA,1,B/CA-0736,FRP EC11,"St. Albans Canadian National Telegraph, Outside shelter planned, JKEC0951",47.86596103,-55.849191,GN27BU
CABOTA,1,B/CA-0737,FRP ED42,"New Chelsea United Towns, Outside shelter planned, JKED0248",48.02623603,-53.218126,GN38JA
CABOTA,1,B/CA-0738,FRP FE31,"Comfort Cove Department of Transport, Basement shelter planned, JKFE0825",49.40449093,-54.8603475,GN29NJ
CABOTA,1,B/CA-0739,Holyrood BRIDGE,,47.38472913,-53.1238248,GN37KJ
CABOTA,1,B/CA-0740,Continuous Wave: Holyrood-Debert,,46.40287105,-58.2871739,GN06UJ
CABOTA,1,B/CA-0741,Nudet Post NB1,"Camp Gagetown Building 11, Central Heating Plant, Basement shelter, 7 Works Coy RCE, HKJA3541, target city Saint John",45.84356423,-66.4612578,FN65SU
CABOTA,1,B/CA-0742,Nudet Post NB2,"Grand Harbour RCMP Detachment, Plans for basement shelter in standard detachment building, Target monitoring: Saint John, HKJA3451",44.68675183,-66.7656616,FN64OQ
CABOTA,1,B/CA-0743,Nudet Post NB3,"St. George RCMP Detachment, basement shelter completed, HKJA1108, Target monitor: Saint John",45.12960193,-66.8251518,FN65OD
CABOTA,1,B/CA-0744,FRP NB1,"Saint John RCMP Detachment, Basement shelter, HKJA 5716",45.27331533,-66.063308,FN65XG
CABOTA,1,B/CA-0745,FRP NB2,"Saint John Barrack Green Armories, Canadian Army, existing room in basement gives PF100, HKJA5716",45.26604133,-66.0529334,FN65XG
CABOTA,1,B/CA-0746,FRP NB60,"Hampton NB Forest Service, planned aboveground shelter, Forest Service District Office (District 3)",45.53295113,-65.8321685,FN75CM
CABOTA,1,B/CA-0747,FRP NB59,"Sussex RCMP Detachment (new building and rented building), Basement shelter, HKKA2944",45.72361923,-65.5108761,FN75FR
CABOTA,1,B/CA-0748,FRP NB3,"Saint John (Coldbrook), Canadian Army, Plans for basement shelter completed, HKJA5919",45.30880163,-66.0332731,FN65XH
CABOTA,1,B/CA-0749,FRP NB4,"Lancaster NB Forest Service, Plans completed for basement shelter, HKJA5215",45.25655223,-66.0943578,FN65WG
CABOTA,1,B/CA-0750,FRP NB5,"Fredericton RCMP J Division Headquarters, Basement shelter, HKJA2158",45.96558903,-66.655834,FN65QX
CABOTA,1,B/CA-0751,FRP NB6,"Fredericton CPR Station, basement shelter completed, HKJA2157",45.95639563,-66.648075,FN65QW
CABOTA,1,B/CA-0752,FRP NB7,"Fredericton NB Forest Service, Plans for basement shelter, HKJA2057",45.93363253,-66.6574394,FN65QW
CABOTA,1,B/CA-0753,FRP NB8,"Moncton RCMP Sub-Division HQ, Basement shelter completed, HKLB1306",46.08978563,-64.7723817,FN76OC
CABOTA,1,B/CA-0754,FRP NB9?,"Moncton NB Forest Service, plans completed for basement shelter, HKLB1306",46.08781653,-64.7782313,FN76OC
CABOTA,1,B/CA-0755,FRP NB10,"Moncton Airport, DOT(Air), Plans for basement shelter completed, HKLB1907",46.11395513,-64.6788977,FN76PC
CABOTA,1,B/CA-0756,FRP NB11,"Edmundston RCMP Detachment, Basement shelter, HKGC4022",47.36901273,-68.3266741,FN57UI
CABOTA,1,B/CA-0757,FRP NB13?,"Edmundston NB Forest Service, Plans for basement shelter completed, HKGC4522",47.38532173,-68.3380165,FN57TJ
CABOTA,1,B/CA-0758,FRP NB12,"Edmundston Canadian National Telegraph, Basement shelter completed, HKGC4522",47.36169383,-68.3353513,FN57TI
CABOTA,1,B/CA-0759,FRP NB14,"Campbellton RCMP Detachment, basement shelter completed, HKJC1859",48.00739903,-66.6722057,FN68PA
CABOTA,1,B/CA-0760,FRP NB15,"Campbellton Canadian National Telegraph, basement shelter completed, HKJC1959",48.00481563,-66.6784856,FN68PA
CABOTA,1,B/CA-0761,FRP NB16,"Bathurst Armory, Canadian Army, HKKC2137",47.60070113,-65.6598471,FN77EO
CABOTA,1,B/CA-0762,"FRP NB17, FRP NB18","Newcastle RCMP Detachment, basement shelter completed, HKKC2501, Newcastle NB Forest Service, plans for shelter, HKKC2501",47.00154433,-65.5661644,FN77FA
CABOTA,1,B/CA-0763,FRP NB19,"Burtt's Corner CPR Station, construction of above-ground shelter, HKJB0804",46.05774703,-66.8677867,FN66NB
CABOTA,1,B/CA-0764,FRP NB20,"Canterbury Station, CPR Station, Basement shelter completed, HKHA3254",45.89057873,-67.4642771,FN65GV
CABOTA,1,B/CA-0765,FRP NB21,"Woodstock RCMP Detachment, basement shelter completed, HKHB2609",46.15026603,-67.6033952,FN66ED
CABOTA,1,B/CA-0766,FRP NB22,"East Florenceville RCMP Detatchment, basement shelter, HKHB2326",46.44279303,-67.613276,FN66EK
CABOTA,1,B/CA-0767,FRP NB23,"Juniper Station CNR Station, aboveground shelter, HKHB4733",46.54752993,-67.1787233,FN66JN
CABOTA,1,B/CA-0768,FRP NB24,"Perth RCMP Detachment, Basement shelter, HKHB1844",46.74581173,-67.6977721,FN66DR
CABOTA,1,B/CA-0769,FRP NB25,"Plaster Rock RCMP Detachment, basement shelter, HKHB3726",46.90824953,-67.3955312,FN66HV
CABOTA,1,B/CA-0770,FRP NB26,"Grand Falls RCMP Detachment, Basement shelter, HKHC1603",47.04799343,-67.7399015,FN67DB
CABOTA,1,B/CA-0771,FRP NB27,"Saint Leonard RCMP Detachment, Basement shelter, HKHC0510",47.16275903,-67.925605,FN67AD
CABOTA,1,B/CA-0772,FRP NB28,"Baker Brook NB Forest Service, aboveground shelter planned, HKGC2919",47.30794303,-68.4970053,FN57SH
CABOTA,1,B/CA-0773,FRP NB29,"Saint-Quentin RCMP Detachment, Basement shelter, HKHC3631",47.51191593,-67.3921287,FN67HM
CABOTA,1,B/CA-0774,FRP NB30,"Kedgwick CNR Station, Aboveground shelter, HKHC3939",47.64337683,-67.3494685,FN67HP
CABOTA,1,B/CA-0775,FRP 31?,"Kedgwick Lookout Tower, NB Forest Service, HKHC0919, plans for aboveground shelter",47.65895803,-67.3184227,FN67IP
CABOTA,1,B/CA-0776,FRP NB32,"Mount Carleton Lookout Tower, NB Forest Service, Aboveground shelter planned, HKJC0823",47.36757773,-66.875668,FN67NI
CABOTA,1,B/CA-0777,FRP NB33,"Jacquet River RCMP Detachment, Basement shelter, HKJC5955",47.91713903,-66.008839,FN67XW
CABOTA,1,B/CA-0778,FRP NB34,"Caraquet RCMP Detachment, Basement Shelter, HKLC0348",47.78973033,-64.962827,FN77MS
CABOTA,1,B/CA-0779,FRP NB35,"Tabusintac RCMP Detachment, Basement shelter, HKKC5920",47.32715503,-65.0110119,FN77LH
CABOTA,1,B/CA-0780,FRP NB36,"Bartibog Station CNR Station, aboveground shelter, HKKC2217",47.29028023,-65.6247743,FN77EG
CABOTA,1,B/CA-0781,FRP NB37,"Big Bald Mountain Lookout, NB Forest Service, above ground shelter planned, HKJC3512",47.20000003,-66.4169444,FN67SE
CABOTA,1,B/CA-0782,FRP NB38,"McKendrick Lake Lookout Tower, aboveground shelter planned, BC Forest Service, HKJB3821",46.85447293,-66.3445705,FN66TU
CABOTA,1,B/CA-0783,FRP NB39,"Renous Royal Canadian Navy Ammunition Depot, basement shelter, HKKB1250",46.79892483,-65.8002655,FN76CT
CABOTA,1,B/CA-0784,FRP NB40,"Doaktown RCMP detachment, Basement shelter, HKJB5233",46.55373853,-66.1364081,FN66WN
CABOTA,1,B/CA-0785,FRP NB41,"McGivney No. 32 Ordnance Depot, Canadian Army, Basement shelter, HKJB2620",46.36444823,-66.5671989,FN66RI
CABOTA,1,B/CA-0786,FRP NB42,"Fredericton Junction CPR Station, aboveground shelter, HKJA2340",45.66355123,-66.6153691,FN65QP
CABOTA,1,B/CA-0787,FRP NB43,"Westfield Beach CPR Station, Aboveground shelter, HKJA4721",45.34961003,-66.2295369,FN65VI
CABOTA,1,B/CA-0788,FRP NB44,"Mount Pleasant Lookout Tower, NB Forest Service, aboveground shelter planned, HKJA1126",45.43166669,-66.81305556,FN65OK
CABOTA,1,B/CA-0789,FRP NB45,"Saint Stephen RCMP Detachment, basement shelter, HKHA4412",45.19416513,-67.2755622,FN65IE
CABOTA,1,B/CA-0790,FRP NB46,"Watt Junction CPR Station, Aboveground shelter, HKHA5125",45.41422883,-67.1647633,FN65KJ
CABOTA,1,B/CA-0791,FRP NB47,"McAdam CPR Station, Basement shelter, HKHA4136",45.59004443,-67.328927,FN65IO
CABOTA,1,B/CA-0792,FRP NB48,"Minto RCMP Detachment, basement shelter, HKJB5605",46.07616373,-66.0749098,FN66XB
CABOTA,1,B/CA-0793,FRP NB49,"Chipman RCMP Detachment, basement station, HKKB0811",46.17546283,-65.8813739,FN76BE
CABOTA,1,B/CA-0794,FRP NB50?,"Harcourt CNR Station, Basement shelter, HKKB4528",46.47140273,-65.2475727,FN76JL
CABOTA,1,B/CA-0795,FRP NB51,"Rogersville CNR Station, aboveground shelter, HKKB3544",46.72950543,-65.4253754,FN76GR
CABOTA,1,B/CA-0796,FRP NB53,"Richibucto RCMP Detachment, HKLB0841, Basement shelter, HKLB0841",46.68178733,-64.8659804,FN76NQ
CABOTA,1,B/CA-0797,FRP NB54,"Bouctouche RCMP Detachment, Basement shelter, HKLB1728",46.47227613,-64.7242645,FN76PL
CABOTA,1,B/CA-0798,FRP NB55,"Shediac RCMP Detachment, Basement shelter, HKLB2813",46.22019723,-64.5346866,FN76RF
CABOTA,1,B/CA-0799,FRP NB56,"Port Elgin RCMP Detachment, basement shelter, HKLB5503",46.04964623,-64.0878207,FN76WB
CABOTA,1,B/CA-0800,FRP NB57,"Albert RCMP Detachment, Basement shelter, HKLA1645",45.74847983,-64.7429666,FN75PR
CABOTA,1,B/CA-0801,FRP NB58,"Petitcodiac RCMP Detachment, basement shelter, HKKA5026",45.93212163,-65.1738941,FN75JW
CABOTA,1,B/CA-0802,Despatcher Telephone: Monk - Rivière-Bleu,,47.26659195,-69.52057855,FN57FG
CABOTA,1,B/CA-0803,Telephone Rivière-Bleue-Edmundston,,47.3977114,-68.6899011,FN57PJ
CABOTA,1,B/CA-0804,Telephone: New Carlisle-Campbellton,,48.00533115,-66.00692145,FN68XA
CABOTA,1,B/CA-0805,Continuous Wave: Debert-Fredericton,,45.693301,-65.0531785,FN75LQ
CABOTA,1,B/CA-0806,Nudet Post MQ1,"RCAF Station Beaverbank, protected area of Ops Centre, no new construction, HJMQ2047",44.91353003,-63.72572,FN84DV
CABOTA,1,B/CA-0807,Nudet Post LQ4,"Cross Island Lighthouse, Department of Transport Marine, HJLQ5019",44.31213133,-64.1684297,FN74VH
CABOTA,1,B/CA-0808,Nudet Post LQ2,"Chester RCMP Detachment, outdoor shelter planned, HJLQ4533",44.54211553,-64.2388802,FN74VN
CABOTA,1,B/CA-0809,Nudet Post MA4?,"Shubenacadie Lands and Forests Building, Basement shelter planned, still in planning stages as of July 1962. Meant to be collecting point for all Lands and Forest FRPs.",45.09521553,-63.3981791,FN85HC
CABOTA,1,B/CA-0810,FRP HJJQ4,"Meteghan RCMP Detachment, Basement shelter completed, HJJQ5021",44.18746743,-66.1623348,FN64WE
CABOTA,1,B/CA-0811,FRP HJJP2,"Yarmouth Postmaster's House, Department of Public Works, Basement shelter completed, not exact location",43.83745763,-66.117382,FN63WU
CABOTA,1,B/CA-0812,FRP  HJJP22,"Yarmouth Airport, DOT (Air) Planned Outdoor shelter",43.82509673,-66.087427,FN63WT
CABOTA,1,B/CA-0813,FRP HJJP23,"Pease Island Lighthouse, Basement shelter, DOT(M), HJJP5838",43.62853653,-66.0268919,FN63XP
CABOTA,1,B/CA-0814,FRP HJKQ22,"Middleton CPR Station, Basement shelter completed. collecting point for Caledonia and New Germany. HJKQ5557",44.94565583,-65.0726107,FN74LW
CABOTA,1,B/CA-0815,FRP HJKQ2,"Lawrencetown Dept of Lands and Forests Building, outdoor shelter planned, HJKQ5053",44.88356563,-65.1647122,FN74KV
CABOTA,1,B/CA-0816,FRP HJKQ23,"Bridgetown Department of Public Works building, Basement shelter completed, HJKQ4251",44.84183573,-65.2883507,FN74IU
CABOTA,1,B/CA-0817,FRP HJKQ42,"Caledonia CNR Station, Outdoor shelter completed, HJKQ5823",44.37502603,-65.0310849,FN74LJ
CABOTA,1,B/CA-0818,FRP HJKQ43,"Tobeatic Lake Dept of Lands and Forests, Outdoor shelter planned, HJKQ4311",44.18333333,-65.25,FN74JE
CABOTA,1,B/CA-0819,FRP HJKQ3,"East Kemptville, Department of Lands and Forests, Outdoor shelter planned",44.08482633,-65.767546,FN74CC
CABOTA,1,B/CA-0820,FRP HJKP2,"Middle Ohio Lands and Forests Building, Outdoor shelter planned, HJKP3753",43.92604403,-65.405931,FN73HW
CABOTA,1,B/CA-0821,FRP HJKP22,"Shelburne RCMP Detachment, Basement shelter completed, HJKP4143",43.76254583,-65.3205212,FN73IS
CABOTA,1,B/CA-0822,FRP HJKP23,"Lockeport DPW (Postmaster and Caretaker), Basement Shelter completed, HJKP5342",43.69884003,-65.11369,FN73KQ
CABOTA,1,B/CA-0823,FRP HJKP4,"RCAF Station Barrington, Baccaro NS, Outdoor Shelter, HJKP3227",43.45203633,-65.4721529,FN73GK
CABOTA,1,B/CA-0824,FRP HJKP3,"Cape Sable Lighthouse, DOT(M), Basement shelter completed, HJKP2324",43.39031313,-65.6214888,FN73EJ
